{"type":"FeatureCollection","features":[{"type":"Feature","properties":{"ID":1,"Name":"Waag","Category":"A"},"geometry":{"type":"Point","coordinates":[4.9001193,52.37264095]}},{"type":"Feature","properties":{"ID":2,"Name":"Royal Palace","Category":"A"},"geometry":{"type":"Point","coordinates":[4.891307264,52.37312514]}},{"type":"Feature","properties":{"ID":3,"Name":"Sint-Franciscus Xaveriuskerk","Category":"A"},"geometry":{"type":"Point","coordinates":[4.888138335,52.36780343]}},{"type":"Feature","properties":{"ID":4,"Name":"Mint Tower","Category":"A"},"geometry":{"type":"Point","coordinates":[4.893203058,52.36704372]}},{"type":"Feature","properties":{"ID":5,"Name":"Universiteitstheater","Category":"A"},"geometry":{"type":"Point","coordinates":[4.895340166,52.36784485]}},{"type":"Feature","properties":{"ID":6,"Name":"Rembrandt House","Category":"A"},"geometry":{"type":"Point","coordinates":[4.901233709,52.36937354]}},{"type":"Feature","properties":{"ID":7,"Name":"Magere Brug","Category":"A"},"geometry":{"type":"Point","coordinates":[4.902463874,52.36359164]}},{"type":"Feature","properties":{"ID":8,"Name":"Amstelcampus","Category":"A"},"geometry":{"type":"Point","coordinates":[4.909338531,52.35930408]}},{"type":"Feature","properties":{"ID":9,"Name":"OVLG","Category":"A"},"geometry":{"type":"Point","coordinates":[4.915278576,52.35819509]}},{"type":"Feature","properties":{"ID":10,"Name":"Horfus Botanicus","Category":"A"},"geometry":{"type":"Point","coordinates":[4.907889914,52.36673084]}},{"type":"Feature","properties":{"ID":11,"Name":"Rijksmuseum","Category":"A"},"geometry":{"type":"Point","coordinates":[4.885129638,52.35985597]}},{"type":"Feature","properties":{"ID":12,"Name":"Van Gogh Museum","Category":"A"},"geometry":{"type":"Point","coordinates":[4.881037501,52.3583749]}},{"type":"Feature","properties":{"ID":13,"Name":"Hilton Amsterdam","Category":"A"},"geometry":{"type":"Point","coordinates":[4.872370008,52.35151637]}},{"type":"Feature","properties":{"ID":14,"Name":"Vondelpark Open Air Theater","Category":"A"},"geometry":{"type":"Point","coordinates":[4.871095239,52.35842928]}},{"type":"Feature","properties":{"ID":15,"Name":"Amsterdam Airport Schiphol","Category":"A"},"geometry":{"type":"Point","coordinates":[4.752292117,52.30963809]}},{"type":"Feature","properties":{"ID":16,"Name":"Haarlemmermeerpolder","Category":"A"},"geometry":{"type":"Point","coordinates":[4.683869038,52.29744514]}},{"type":"Feature","properties":{"ID":17,"Name":"Westwijk","Category":"A"},"geometry":{"type":"Point","coordinates":[4.832520807,52.27218863]}},{"type":"Feature","properties":{"ID":18,"Name":"Studio Vijf Amstelveen","Category":"A"},"geometry":{"type":"Point","coordinates":[4.85596486,52.29842715]}},{"type":"Feature","properties":{"ID":19,"Name":"Amsterdamse Bos","Category":"A"},"geometry":{"type":"Point","coordinates":[4.831233352,52.31301337]}},{"type":"Feature","properties":{"ID":20,"Name":"Nieuwe Meer","Category":"A"},"geometry":{"type":"Point","coordinates":[4.813735914,52.33433982]}},{"type":"Feature","properties":{"ID":21,"Name":"EYE Filminstituut","Category":"A"},"geometry":{"type":"Point","coordinates":[4.900845261,52.38438735]}},{"type":"Feature","properties":{"ID":22,"Name":"Kuba Camii Moskee","Category":"A"},"geometry":{"type":"Point","coordinates":[4.913041555,52.39408045]}},{"type":"Feature","properties":{"ID":23,"Name":"Museum Amsterdam-Noord","Category":"A"},"geometry":{"type":"Point","coordinates":[4.925996968,52.38820694]}},{"type":"Feature","properties":{"ID":24,"Name":"BoveniJ Ziekenhuis","Category":"A"},"geometry":{"type":"Point","coordinates":[4.922564392,52.40456234]}},{"type":"Feature","properties":{"ID":25,"Name":"De Nieuwe Noorder","Category":"A"},"geometry":{"type":"Point","coordinates":[4.927406449,52.40602797]}},{"type":"Feature","properties":{"ID":26,"Name":"Landsmeer","Category":"A"},"geometry":{"type":"Point","coordinates":[4.913540729,52.43037326]}},{"type":"Feature","properties":{"ID":27,"Name":"Oostzaan","Category":"A"},"geometry":{"type":"Point","coordinates":[4.874409915,52.43811953]}},{"type":"Feature","properties":{"ID":28,"Name":"Zaandam","Category":"A"},"geometry":{"type":"Point","coordinates":[4.830191228,52.44036047]}},{"type":"Feature","properties":{"ID":29,"Name":"Humanitisch Kindcentrum De Wereldboom","Category":"A"},"geometry":{"type":"Point","coordinates":[4.899689501,52.33865256]}},{"type":"Feature","properties":{"ID":30,"Name":"Elif","Category":"A"},"geometry":{"type":"Point","coordinates":[4.904108916,52.34388134]}},{"type":"Feature","properties":{"ID":31,"Name":"Sloterdijk","Category":"A"},"geometry":{"type":"Point","coordinates":[4.834344698,52.38772338]}},{"type":"Feature","properties":{"ID":32,"Name":"Westport","Category":"A"},"geometry":{"type":"Point","coordinates":[4.794844099,52.40442161]}},{"type":"Feature","properties":{"ID":33,"Name":"Academic Medical Center","Category":"A"},"geometry":{"type":"Point","coordinates":[4.956882332,52.29259222]}},{"type":"Feature","properties":{"ID":34,"Name":"Amsterdamse Poort","Category":"A"},"geometry":{"type":"Point","coordinates":[4.952577875,52.31422548]}},{"type":"Feature","properties":{"ID":35,"Name":"Ouderkerk aan de Amstel","Category":"A"},"geometry":{"type":"Point","coordinates":[4.919708823,52.29464985]}},{"type":"Feature","properties":{"ID":36,"Name":"CNS Abcoude","Category":"A"},"geometry":{"type":"Point","coordinates":[4.970976131,52.26957928]}},{"type":"Feature","properties":{"ID":37,"Name":"Gaasperpark","Category":"A"},"geometry":{"type":"Point","coordinates":[4.993926326,52.30926313]}},{"type":"Feature","properties":{"ID":38,"Name":"SMC HollandPark","Category":"A"},"geometry":{"type":"Point","coordinates":[4.960100299,52.32985259]}},{"type":"Feature","properties":{"ID":39,"Name":"De Kleine Kerk","Category":"A"},"geometry":{"type":"Point","coordinates":[4.940581289,52.33052435]}},{"type":"Feature","properties":{"ID":40,"Name":"Amstel Business Park","Category":"A"},"geometry":{"type":"Point","coordinates":[4.922624033,52.32948366]}},{"type":"Feature","properties":{"ID":41,"Name":"Johan Cruijff Arena","Category":"A"},"geometry":{"type":"Point","coordinates":[4.942787172,52.31480663]}},{"type":"Feature","properties":{"ID":42,"Name":"Amsterdam UMC","Category":"A"},"geometry":{"type":"Point","coordinates":[4.859727555,52.33443914]}},{"type":"Feature","properties":{"ID":43,"Name":"Draaiorgelmuseum","Category":"A"},"geometry":{"type":"Point","coordinates":[4.653251464,52.39092797]}},{"type":"Feature","properties":{"ID":44,"Name":"Iron Mountain AMS1","Category":"A"},"geometry":{"type":"Point","coordinates":[4.66383409,52.39172287]}},{"type":"Feature","properties":{"ID":45,"Name":"Bastion","Category":"A"},"geometry":{"type":"Point","coordinates":[4.65940271,52.43403406]}},{"type":"Feature","properties":{"ID":46,"Name":"Tuinstadhuis","Category":"A"},"geometry":{"type":"Point","coordinates":[4.82130349,52.37897941]}},{"type":"Feature","properties":{"ID":47,"Name":"Bos En Lommer","Category":"A"},"geometry":{"type":"Point","coordinates":[4.854312111,52.37858543]}},{"type":"Feature","properties":{"ID":48,"Name":"Columbusplein","Category":"A"},"geometry":{"type":"Point","coordinates":[4.855166638,52.36620647]}},{"type":"Feature","properties":{"ID":49,"Name":"Rembrandtplein","Category":"A"},"geometry":{"type":"Point","coordinates":[4.896989187,52.36604396]}},{"type":"Feature","properties":{"ID":50,"Name":"Food Center Amsterdam","Category":"A"},"geometry":{"type":"Point","coordinates":[4.866730217,52.37714173]}},{"type":"Feature","properties":{"ID":51,"Name":"Isolatorweg","Category":"A"},"geometry":{"type":"Point","coordinates":[4.853591317,52.39128735]}},{"type":"Feature","properties":{"ID":52,"Name":"Zaanse Schans","Category":"A"},"geometry":{"type":"Point","coordinates":[4.817864257,52.47377344]}},{"type":"Feature","properties":{"ID":53,"Name":"Tandartsenpraktijk Henneland","Category":"A"},"geometry":{"type":"Point","coordinates":[4.800080958,52.45675167]}},{"type":"Feature","properties":{"ID":54,"Name":"Amsterdam University College","Category":"A"},"geometry":{"type":"Point","coordinates":[4.950903524,52.3552156]}},{"type":"Feature","properties":{"ID":55,"Name":"Science Park AMS","Category":"A"},"geometry":{"type":"Point","coordinates":[4.959030288,52.3561264]}},{"type":"Feature","properties":{"ID":56,"Name":"IJburg Beach","Category":"A"},"geometry":{"type":"Point","coordinates":[5.014351506,52.35698798]}},{"type":"Feature","properties":{"ID":57,"Name":"Sloterpark","Category":"A"},"geometry":{"type":"Point","coordinates":[4.810707684,52.36414487]}},{"type":"Feature","properties":{"ID":58,"Name":"Zwanenburg","Category":"A"},"geometry":{"type":"Point","coordinates":[4.747242488,52.37583245]}},{"type":"Feature","properties":{"ID":59,"Name":"Vijfhuizen","Category":"A"},"geometry":{"type":"Point","coordinates":[4.677764481,52.34805773]}},{"type":"Feature","properties":{"ID":60,"Name":"Netherlands Cancer Institute","Category":"A"},"geometry":{"type":"Point","coordinates":[4.825375925,52.35050546]}},{"type":"Feature","properties":{"ID":61,"Name":"OLVG West","Category":"A"},"geometry":{"type":"Point","coordinates":[4.839843319,52.37089981]}},{"type":"Feature","properties":{"ID":62,"Name":"Jumbo","Category":"A"},"geometry":{"type":"Point","coordinates":[4.78666538,52.34968025]}},{"type":"Feature","properties":{"ID":63,"Name":"De Punt","Category":"A"},"geometry":{"type":"Point","coordinates":[4.78488394,52.35634061]}},{"type":"Feature","properties":{"ID":64,"Name":"Griffioen","Category":"A"},"geometry":{"type":"Point","coordinates":[4.8739979,52.32093086]}},{"type":"Feature","properties":{"ID":65,"Name":"Huisarts Kronenburg","Category":"A"},"geometry":{"type":"Point","coordinates":[4.877472018,52.32081756]}},{"type":"Feature","properties":{"ID":66,"Name":"Sjoel Amstelveen","Category":"A"},"geometry":{"type":"Point","coordinates":[4.874528941,52.30684875]}},{"type":"Feature","properties":{"ID":67,"Name":"Majoor Bosshardbrug","Category":"A"},"geometry":{"type":"Point","coordinates":[4.849297463,52.30682558]}},{"type":"Feature","properties":{"ID":68,"Name":"Rapenberg","Category":"A"},"geometry":{"type":"Point","coordinates":[4.909649051,52.37146132]}},{"type":"Feature","properties":{"ID":69,"Name":"Kattenburg","Category":"A"},"geometry":{"type":"Point","coordinates":[4.918934658,52.37243694]}},{"type":"Feature","properties":{"ID":70,"Name":"Gein","Category":"A"},"geometry":{"type":"Point","coordinates":[4.98698795,52.29846346]}},{"type":"Feature","properties":{"ID":71,"Name":"Yuverta mbo","Category":"A"},"geometry":{"type":"Point","coordinates":[4.764428138,52.26142332]}},{"type":"Feature","properties":{"ID":72,"Name":"World Trade Center, AMS","Category":"A"},"geometry":{"type":"Point","coordinates":[4.872388068,52.340201]}},{"type":"Feature","properties":{"ID":73,"Name":"Beatrixpark","Category":"A"},"geometry":{"type":"Point","coordinates":[4.881018526,52.34257241]}},{"type":"Feature","properties":{"ID":74,"Name":"Olympic Stadium","Category":"A"},"geometry":{"type":"Point","coordinates":[4.853156656,52.34450994]}},{"type":"Feature","properties":{"ID":75,"Name":"Altra College Arkin","Category":"A"},"geometry":{"type":"Point","coordinates":[4.857660047,52.36339676]}},{"type":"Feature","properties":{"ID":76,"Name":"Zonnerwijer","Category":"A"},"geometry":{"type":"Point","coordinates":[4.890878105,52.41329372]}},{"type":"Feature","properties":{"ID":77,"Name":"Badhuia Oedipus","Category":"A"},"geometry":{"type":"Point","coordinates":[4.93999573,52.36360635]}},{"type":"Feature","properties":{"ID":78,"Name":"Theater Amsterdam","Category":"A"},"geometry":{"type":"Point","coordinates":[4.877256965,52.39701915]}},{"type":"Feature","properties":{"ID":79,"Name":"Kleine-Gartmanplantsoen","Category":"A"},"geometry":{"type":"Point","coordinates":[4.883553564,52.3633092]}},{"type":"Feature","properties":{"ID":80,"Name":"Noorderkerk","Category":"A"},"geometry":{"type":"Point","coordinates":[4.886901058,52.37961766]}},{"type":"Feature","properties":{"ID":81,"Name":"Old Church","Category":"A"},"geometry":{"type":"Point","coordinates":[4.898406538,52.37422724]}},{"type":"Feature","properties":{"ID":82,"Name":"Frederik Hendrikbuurt","Category":"A"},"geometry":{"type":"Point","coordinates":[4.872827674,52.37660161]}},{"type":"Feature","properties":{"ID":83,"Name":"Amsterdam West","Category":"A"},"geometry":{"type":"Point","coordinates":[4.86820629,52.3679365]}},{"type":"Feature","properties":{"ID":84,"Name":"De Pijp","Category":"A"},"geometry":{"type":"Point","coordinates":[4.903222865,52.354286]}},{"type":"Feature","properties":{"ID":85,"Name":"Kinderboerderij de Pijp","Category":"A"},"geometry":{"type":"Point","coordinates":[4.892650864,52.34940801]}},{"type":"Feature","properties":{"ID":86,"Name":"Royal Tropical Institute","Category":"A"},"geometry":{"type":"Point","coordinates":[4.921796353,52.36282595]}},{"type":"Feature","properties":{"ID":87,"Name":"Artis","Category":"A"},"geometry":{"type":"Point","coordinates":[4.916709372,52.36600676]}},{"type":"Feature","properties":{"ID":88,"Name":"Ruimtelijke Wetenschappen","Category":"A"},"geometry":{"type":"Point","coordinates":[4.912563093,52.36402912]}},{"type":"Feature","properties":{"ID":89,"Name":"Rue des Rêves","Category":"A"},"geometry":{"type":"Point","coordinates":[4.947109301,52.34188712]}},{"type":"Feature","properties":{"ID":90,"Name":"Hogeschool van Amsterdam","Category":"A"},"geometry":{"type":"Point","coordinates":[4.928547307,52.33710973]}},{"type":"Feature","properties":{"ID":91,"Name":"Noordwal","Category":"A"},"geometry":{"type":"Point","coordinates":[4.913458561,52.38124471]}},{"type":"Feature","properties":{"ID":92,"Name":"Kunstkerk","Category":"A"},"geometry":{"type":"Point","coordinates":[4.886695069,52.38541004]}},{"type":"Feature","properties":{"ID":93,"Name":"Westergasfabriek","Category":"A"},"geometry":{"type":"Point","coordinates":[4.871005397,52.38660038]}},{"type":"Feature","properties":{"ID":94,"Name":"Patisserie Holtkamp","Category":"A"},"geometry":{"type":"Point","coordinates":[4.891870324,52.36164836]}},{"type":"Feature","properties":{"ID":95,"Name":"Johanna Borskibrug","Category":"A"},"geometry":{"type":"Point","coordinates":[4.892375142,52.36387849]}},{"type":"Feature","properties":{"ID":96,"Name":"Waldorf Astoria","Category":"A"},"geometry":{"type":"Point","coordinates":[4.896803221,52.36453041]}},{"type":"Feature","properties":{"ID":97,"Name":"National Monument","Category":"A"},"geometry":{"type":"Point","coordinates":[4.893879157,52.37281361]}},{"type":"Feature","properties":{"ID":98,"Name":"Cafe Ons","Category":"A"},"geometry":{"type":"Point","coordinates":[4.906798585,52.38474568]}},{"type":"Feature","properties":{"ID":99,"Name":"Watergraafsmeer","Category":"A"},"geometry":{"type":"Point","coordinates":[4.922574684,52.35082068]}},{"type":"Feature","properties":{"ID":100,"Name":"Amsterdam Centraal","Category":"A"},"geometry":{"type":"Point","coordinates":[4.900207151,52.38035458]}},{"type":"Feature","properties":{"ID":101,"Name":"De Gouden Spiegel en De Silveren Spiegel","Category":"A"},"geometry":{"type":"Point","coordinates":[4.893869195,52.37770784]}},{"type":"Feature","properties":{"ID":102,"Name":"Singel","Category":"A"},"geometry":{"type":"Point","coordinates":[4.890492584,52.37518264]}},{"type":"Feature","properties":{"ID":103,"Name":"Anne Frank House","Category":"A"},"geometry":{"type":"Point","coordinates":[4.884061697,52.37515034]}},{"type":"Feature","properties":{"ID":104,"Name":"Rozenstraat","Category":"A"},"geometry":{"type":"Point","coordinates":[4.879578937,52.37244938]}},{"type":"Feature","properties":{"ID":105,"Name":"Waterlandplein","Category":"A"},"geometry":{"type":"Point","coordinates":[4.954077072,52.39205829]}},{"type":"Feature","properties":{"ID":106,"Name":"Badhoevedorp","Category":"A"},"geometry":{"type":"Point","coordinates":[4.785690957,52.33904906]}},{"type":"Feature","properties":{"ID":107,"Name":"Merkelbach","Category":"A"},"geometry":{"type":"Point","coordinates":[4.933486402,52.35119658]}},{"type":"Feature","properties":{"ID":108,"Name":"Koningskerk","Category":"A"},"geometry":{"type":"Point","coordinates":[4.93619834,52.3484182]}},{"type":"Feature","properties":{"ID":109,"Name":"Sint Nicolaaskerk","Category":"A"},"geometry":{"type":"Point","coordinates":[4.901155121,52.37646326]}},{"type":"Feature","properties":{"ID":110,"Name":"Conservatorium","Category":"A"},"geometry":{"type":"Point","coordinates":[4.908909927,52.37623494]}},{"type":"Feature","properties":{"ID":111,"Name":"Sportpark 't Loopveld","Category":"A"},"geometry":{"type":"Point","coordinates":[4.887120269,52.31994574]}},{"type":"Feature","properties":{"ID":112,"Name":"Rembrandt Hoeve","Category":"A"},"geometry":{"type":"Point","coordinates":[4.906233944,52.31919643]}},{"type":"Feature","properties":{"ID":113,"Name":"Begijnhof","Category":"A"},"geometry":{"type":"Point","coordinates":[4.890063533,52.36948269]}},{"type":"Feature","properties":{"ID":114,"Name":"Coffeemania","Category":"A"},"geometry":{"type":"Point","coordinates":[4.88194258,52.36675158]}},{"type":"Feature","properties":{"ID":115,"Name":"Vondelpark","Category":"A"},"geometry":{"type":"Point","coordinates":[4.858484601,52.3575702]}},{"type":"Feature","properties":{"ID":116,"Name":"Nieuwezijds Kolk","Category":"B"},"geometry":{"type":"Point","coordinates":[4.893344,52.376071]}},{"type":"Feature","properties":{"ID":117,"Name":"Surinameplein / Curaçaostraat","Category":"B"},"geometry":{"type":"Point","coordinates":[4.853117,52.358384]}},{"type":"Feature","properties":{"ID":118,"Name":"Johan Huizingalaan","Category":"B"},"geometry":{"type":"Point","coordinates":[4.827325,52.357816]}},{"type":"Feature","properties":{"ID":119,"Name":"Prinsengracht","Category":"B"},"geometry":{"type":"Point","coordinates":[4.884466,52.365024]}},{"type":"Feature","properties":{"ID":120,"Name":"Keizergracht","Category":"B"},"geometry":{"type":"Point","coordinates":[4.886446,52.365963]}},{"type":"Feature","properties":{"ID":121,"Name":"Koningsplein","Category":"B"},"geometry":{"type":"Point","coordinates":[4.8891545,52.3678894]}},{"type":"Feature","properties":{"ID":122,"Name":"Matterhorn","Category":"B"},"geometry":{"type":"Point","coordinates":[4.774775,52.353745]}},{"type":"Feature","properties":{"ID":123,"Name":"Pilatus","Category":"B"},"geometry":{"type":"Point","coordinates":[4.776846,52.352917]}},{"type":"Feature","properties":{"ID":124,"Name":"Inarisstraat","Category":"B"},"geometry":{"type":"Point","coordinates":[4.783287,52.350338]}},{"type":"Feature","properties":{"ID":125,"Name":"Baden Powellweg","Category":"B"},"geometry":{"type":"Point","coordinates":[4.794747,52.350985]}},{"type":"Feature","properties":{"ID":126,"Name":"Hoekenes","Category":"B"},"geometry":{"type":"Point","coordinates":[4.802256,52.352505]}},{"type":"Feature","properties":{"ID":127,"Name":"Louis Davidsstraat","Category":"B"},"geometry":{"type":"Point","coordinates":[4.808843,52.353897]}},{"type":"Feature","properties":{"ID":128,"Name":"Eerste Constantijn Huygensstraat / Overtoom","Category":"B"},"geometry":{"type":"Point","coordinates":[4.875287,52.362752]}},{"type":"Feature","properties":{"ID":129,"Name":"Rhijnvis Feithstraat","Category":"B"},"geometry":{"type":"Point","coordinates":[4.860096,52.358968]}},{"type":"Feature","properties":{"ID":130,"Name":"Kruislaan","Category":"B"},"geometry":{"type":"Point","coordinates":[4.94019,52.347758]}},{"type":"Feature","properties":{"ID":131,"Name":"Brinkstraat","Category":"B"},"geometry":{"type":"Point","coordinates":[4.947649,52.343074]}},{"type":"Feature","properties":{"ID":132,"Name":"Arent Krijtstraat","Category":"B"},"geometry":{"type":"Point","coordinates":[4.954533,52.33961]}},{"type":"Feature","properties":{"ID":133,"Name":"Diemerbrug","Category":"B"},"geometry":{"type":"Point","coordinates":[4.9612609,52.3382985]}},{"type":"Feature","properties":{"ID":134,"Name":"Diemen Sniep","Category":"B"},"geometry":{"type":"Point","coordinates":[4.969577,52.336763]}},{"type":"Feature","properties":{"ID":135,"Name":"Dapperstraat","Category":"B"},"geometry":{"type":"Point","coordinates":[4.929368,52.361019]}},{"type":"Feature","properties":{"ID":136,"Name":"Meer en Vaart","Category":"B"},"geometry":{"type":"Point","coordinates":[4.810137,52.356401]}},{"type":"Feature","properties":{"ID":137,"Name":"Derkinderenstraat","Category":"B"},"geometry":{"type":"Point","coordinates":[4.840032,52.357957]}},{"type":"Feature","properties":{"ID":138,"Name":"Corantijnstraat","Category":"B"},"geometry":{"type":"Point","coordinates":[4.853279,52.361472]}},{"type":"Feature","properties":{"ID":139,"Name":"Postjesweg / Hoofdweg","Category":"B"},"geometry":{"type":"Point","coordinates":[4.8534365,52.364245]}},{"type":"Feature","properties":{"ID":140,"Name":"Ten Katestraat","Category":"B"},"geometry":{"type":"Point","coordinates":[4.867544,52.365975]}},{"type":"Feature","properties":{"ID":141,"Name":"Kinkerstraat / Bilderdijkstraat","Category":"B"},"geometry":{"type":"Point","coordinates":[4.872164,52.367246]}},{"type":"Feature","properties":{"ID":142,"Name":"Leidseplein","Category":"B"},"geometry":{"type":"Point","coordinates":[4.882348,52.363775]}},{"type":"Feature","properties":{"ID":143,"Name":"Ecuplein","Category":"B"},"geometry":{"type":"Point","coordinates":[4.788597,52.349776]}},{"type":"Feature","properties":{"ID":144,"Name":"J.P. Heijestraat","Category":"B"},"geometry":{"type":"Point","coordinates":[4.866245,52.360454]}},{"type":"Feature","properties":{"ID":145,"Name":"Van Hallstraat","Category":"B"},"geometry":{"type":"Point","coordinates":[4.869865,52.384237]}},{"type":"Feature","properties":{"ID":146,"Name":"Nieuwe Willemsstraat","Category":"B"},"geometry":{"type":"Point","coordinates":[4.881058,52.381498]}},{"type":"Feature","properties":{"ID":147,"Name":"Azartplein","Category":"B"},"geometry":{"type":"Point","coordinates":[4.937331,52.376743]}},{"type":"Feature","properties":{"ID":148,"Name":"Plein `40-`45","Category":"B"},"geometry":{"type":"Point","coordinates":[4.821459,52.381325]}},{"type":"Feature","properties":{"ID":149,"Name":"Van Limburg Stirumstraat","Category":"B"},"geometry":{"type":"Point","coordinates":[4.875041,52.384362]}},{"type":"Feature","properties":{"ID":150,"Name":"Eerste Coehoornstraat","Category":"B"},"geometry":{"type":"Point","coordinates":[4.926459,52.368273]}},{"type":"Feature","properties":{"ID":151,"Name":"C. van Eesterenlaan","Category":"B"},"geometry":{"type":"Point","coordinates":[4.938455,52.373506]}},{"type":"Feature","properties":{"ID":152,"Name":"K. `s-Gravesandestraat","Category":"B"},"geometry":{"type":"Point","coordinates":[4.91432,52.362487]}},{"type":"Feature","properties":{"ID":153,"Name":"Vijzelgracht /Weteringcircuit","Category":"B"},"geometry":{"type":"Point","coordinates":[4.890943,52.359632]}},{"type":"Feature","properties":{"ID":154,"Name":"Rijksmuseum","Category":"B"},"geometry":{"type":"Point","coordinates":[4.887386,52.3608311]}},{"type":"Feature","properties":{"ID":155,"Name":"Haarlemmerplein","Category":"B"},"geometry":{"type":"Point","coordinates":[4.883588,52.385044]}},{"type":"Feature","properties":{"ID":156,"Name":"De Wittenkade","Category":"B"},"geometry":{"type":"Point","coordinates":[4.877048,52.383185]}},{"type":"Feature","properties":{"ID":157,"Name":"Nassaukade","Category":"B"},"geometry":{"type":"Point","coordinates":[4.879189,52.38114]}},{"type":"Feature","properties":{"ID":158,"Name":"Alexanderplein","Category":"B"},"geometry":{"type":"Point","coordinates":[4.918929,52.363606]}},{"type":"Feature","properties":{"ID":159,"Name":"Hoogte Kadijk","Category":"B"},"geometry":{"type":"Point","coordinates":[4.924559,52.366772]}},{"type":"Feature","properties":{"ID":160,"Name":"Eerste Leeghwaterstraat","Category":"B"},"geometry":{"type":"Point","coordinates":[4.929691,52.370258]}},{"type":"Feature","properties":{"ID":161,"Name":"Rietlandpark","Category":"B"},"geometry":{"type":"Point","coordinates":[4.934361,52.372899]}},{"type":"Feature","properties":{"ID":162,"Name":"Willem de Zwijerlaan","Category":"B"},"geometry":{"type":"Point","coordinates":[4.863925,52.370537]}},{"type":"Feature","properties":{"ID":163,"Name":"De Pijp","Category":"B"},"geometry":{"type":"Point","coordinates":[4.891107,52.35279]}},{"type":"Feature","properties":{"ID":164,"Name":"Wiltzanghlaan","Category":"B"},"geometry":{"type":"Point","coordinates":[4.851309,52.382574]}},{"type":"Feature","properties":{"ID":165,"Name":"Molenwerf","Category":"B"},"geometry":{"type":"Point","coordinates":[4.846416,52.385888]}},{"type":"Feature","properties":{"ID":166,"Name":"Scheldestraat","Category":"B"},"geometry":{"type":"Point","coordinates":[4.891162,52.347345]}},{"type":"Feature","properties":{"ID":167,"Name":"Europaplein","Category":"B"},"geometry":{"type":"Point","coordinates":[4.891987,52.340218]}},{"type":"Feature","properties":{"ID":168,"Name":"Waalstraat","Category":"B"},"geometry":{"type":"Point","coordinates":[4.900811,52.344529]}},{"type":"Feature","properties":{"ID":169,"Name":"Maasstraat","Category":"B"},"geometry":{"type":"Point","coordinates":[4.89659,52.342999]}},{"type":"Feature","properties":{"ID":170,"Name":"Dintelstraat","Category":"B"},"geometry":{"type":"Point","coordinates":[4.89304,52.34191]}},{"type":"Feature","properties":{"ID":171,"Name":"Amstelveen Stadshart","Category":"B"},"geometry":{"type":"Point","coordinates":[4.867279,52.301255]}},{"type":"Feature","properties":{"ID":172,"Name":"Marco Polostraat","Category":"B"},"geometry":{"type":"Point","coordinates":[4.85536,52.37092]}},{"type":"Feature","properties":{"ID":173,"Name":"Jan van Galenstraat","Category":"B"},"geometry":{"type":"Point","coordinates":[4.85856,52.37469]}},{"type":"Feature","properties":{"ID":174,"Name":"Rozengracht / Marnixstraat","Category":"B"},"geometry":{"type":"Point","coordinates":[4.875884,52.37218]}},{"type":"Feature","properties":{"ID":175,"Name":"Roelof Hartplein","Category":"B"},"geometry":{"type":"Point","coordinates":[4.882355,52.352858]}},{"type":"Feature","properties":{"ID":176,"Name":"Bos en Lommerweg","Category":"B"},"geometry":{"type":"Point","coordinates":[4.854869,52.380563]}},{"type":"Feature","properties":{"ID":177,"Name":"Maasstraat","Category":"B"},"geometry":{"type":"Point","coordinates":[4.895126,52.346939]}},{"type":"Feature","properties":{"ID":178,"Name":"Waalstraat","Category":"B"},"geometry":{"type":"Point","coordinates":[4.899972,52.346697]}},{"type":"Feature","properties":{"ID":179,"Name":"Cornelis Troostplein / Van Hillegaertstraat","Category":"B"},"geometry":{"type":"Point","coordinates":[4.891543,52.350197]}},{"type":"Feature","properties":{"ID":180,"Name":"Dam / Paleisstraat","Category":"B"},"geometry":{"type":"Point","coordinates":[4.890512,52.373161]}},{"type":"Feature","properties":{"ID":181,"Name":"Burg. Van Leeuwenlaan","Category":"B"},"geometry":{"type":"Point","coordinates":[4.812448,52.376429]}},{"type":"Feature","properties":{"ID":182,"Name":"Burg. Fockstraat","Category":"B"},"geometry":{"type":"Point","coordinates":[4.832243,52.379721]}},{"type":"Feature","properties":{"ID":183,"Name":"Burg.Eliasstraat","Category":"B"},"geometry":{"type":"Point","coordinates":[4.826824,52.380571]}},{"type":"Feature","properties":{"ID":184,"Name":"Burg. Rendorpstraat","Category":"B"},"geometry":{"type":"Point","coordinates":[4.827313,52.374411]}},{"type":"Feature","properties":{"ID":185,"Name":"Admiraal Helfrichstraat","Category":"B"},"geometry":{"type":"Point","coordinates":[4.844117,52.369434]}},{"type":"Feature","properties":{"ID":186,"Name":"Dr. H. Colijnstraat","Category":"B"},"geometry":{"type":"Point","coordinates":[4.806463,52.376945]}},{"type":"Feature","properties":{"ID":187,"Name":"Lambertus Zijlplein","Category":"B"},"geometry":{"type":"Point","coordinates":[4.803269,52.377261]}},{"type":"Feature","properties":{"ID":188,"Name":"Mercatorplein","Category":"B"},"geometry":{"type":"Point","coordinates":[4.850261,52.370039]}},{"type":"Feature","properties":{"ID":189,"Name":"Jan Voermanstraat","Category":"B"},"geometry":{"type":"Point","coordinates":[4.838204,52.369648]}},{"type":"Feature","properties":{"ID":190,"Name":"Sloterpark","Category":"B"},"geometry":{"type":"Point","coordinates":[4.818873,52.372849]}},{"type":"Feature","properties":{"ID":191,"Name":"Rembrandtplein","Category":"B"},"geometry":{"type":"Point","coordinates":[4.896573,52.366244]}},{"type":"Feature","properties":{"ID":192,"Name":"Artis","Category":"B"},"geometry":{"type":"Point","coordinates":[4.91117,52.366628]}},{"type":"Feature","properties":{"ID":193,"Name":"Burg. Röellstraat / Slotermerlaan","Category":"B"},"geometry":{"type":"Point","coordinates":[4.81902,52.375695]}},{"type":"Feature","properties":{"ID":194,"Name":"Flevopark","Category":"B"},"geometry":{"type":"Point","coordinates":[4.951398,52.365172]}},{"type":"Feature","properties":{"ID":195,"Name":"Mr. Visserplein","Category":"B"},"geometry":{"type":"Point","coordinates":[4.905698,52.367822]}},{"type":"Feature","properties":{"ID":196,"Name":"Eerste Van Swindenstraat","Category":"B"},"geometry":{"type":"Point","coordinates":[4.92398,52.361919]}},{"type":"Feature","properties":{"ID":197,"Name":"Linnaeusstraat / Wijttenbachstraat","Category":"B"},"geometry":{"type":"Point","coordinates":[4.925295,52.360018]}},{"type":"Feature","properties":{"ID":198,"Name":"Insulindeweg","Category":"B"},"geometry":{"type":"Point","coordinates":[4.947752,52.364873]}},{"type":"Feature","properties":{"ID":199,"Name":"Jan Tooropstraat","Category":"B"},"geometry":{"type":"Point","coordinates":[4.838105,52.371488]}},{"type":"Feature","properties":{"ID":200,"Name":"Bos en Lommerplein","Category":"B"},"geometry":{"type":"Point","coordinates":[4.845748,52.377877]}},{"type":"Feature","properties":{"ID":201,"Name":"Soembawastraat","Category":"B"},"geometry":{"type":"Point","coordinates":[4.943723,52.362213]}},{"type":"Feature","properties":{"ID":202,"Name":"Molukkenstraat","Category":"B"},"geometry":{"type":"Point","coordinates":[4.940094,52.361697]}},{"type":"Feature","properties":{"ID":203,"Name":"Hogeweg","Category":"B"},"geometry":{"type":"Point","coordinates":[4.930963,52.353489]}},{"type":"Feature","properties":{"ID":204,"Name":"Hugo de Vrieslaan","Category":"B"},"geometry":{"type":"Point","coordinates":[4.935164,52.350859]}},{"type":"Feature","properties":{"ID":205,"Name":"Pontanusstraat","Category":"B"},"geometry":{"type":"Point","coordinates":[4.927672,52.365925]}},{"type":"Feature","properties":{"ID":206,"Name":"Zeeburgerdijk","Category":"B"},"geometry":{"type":"Point","coordinates":[4.932676,52.365812]}},{"type":"Feature","properties":{"ID":207,"Name":"Javaplein","Category":"B"},"geometry":{"type":"Point","coordinates":[4.937667,52.364327]}},{"type":"Feature","properties":{"ID":208,"Name":"Dam","Category":"B"},"geometry":{"type":"Point","coordinates":[4.894051,52.373816]}},{"type":"Feature","properties":{"ID":209,"Name":"Rokin","Category":"B"},"geometry":{"type":"Point","coordinates":[4.892378,52.3698]}},{"type":"Feature","properties":{"ID":210,"Name":"Marie Heinekenplein","Category":"B"},"geometry":{"type":"Point","coordinates":[4.890701,52.357072]}},{"type":"Feature","properties":{"ID":211,"Name":"IJsbaanpad","Category":"B"},"geometry":{"type":"Point","coordinates":[4.857697,52.341126]}},{"type":"Feature","properties":{"ID":212,"Name":"Concertgebouw","Category":"B"},"geometry":{"type":"Point","coordinates":[4.8796365,52.3566715]}},{"type":"Feature","properties":{"ID":213,"Name":"Dijkgraafplein","Category":"B"},"geometry":{"type":"Point","coordinates":[4.786911,52.355548]}},{"type":"Feature","properties":{"ID":214,"Name":"Baden Powellweg","Category":"B"},"geometry":{"type":"Point","coordinates":[4.791584,52.356492]}},{"type":"Feature","properties":{"ID":215,"Name":"Hoekenes","Category":"B"},"geometry":{"type":"Point","coordinates":[4.799095,52.358004]}},{"type":"Feature","properties":{"ID":216,"Name":"Osdorpplein West","Category":"B"},"geometry":{"type":"Point","coordinates":[4.803203,52.359418]}},{"type":"Feature","properties":{"ID":217,"Name":"Osdorpplein Oost","Category":"B"},"geometry":{"type":"Point","coordinates":[4.807557,52.359622]}},{"type":"Feature","properties":{"ID":218,"Name":"Elandsgracht","Category":"B"},"geometry":{"type":"Point","coordinates":[4.877952,52.368807]}},{"type":"Feature","properties":{"ID":219,"Name":"De Clercqstraat / Bilderdijkstraat","Category":"B"},"geometry":{"type":"Point","coordinates":[4.870333,52.370886]}},{"type":"Feature","properties":{"ID":220,"Name":"Amstelveenseweg","Category":"B"},"geometry":{"type":"Point","coordinates":[4.856596,52.35151]}},{"type":"Feature","properties":{"ID":221,"Name":"Westlandgracht","Category":"B"},"geometry":{"type":"Point","coordinates":[4.845329,52.351584]}},{"type":"Feature","properties":{"ID":222,"Name":"Laan van Vlaanderen","Category":"B"},"geometry":{"type":"Point","coordinates":[4.816059,52.346463]}},{"type":"Feature","properties":{"ID":223,"Name":"Centrum Nieuw Sloten","Category":"B"},"geometry":{"type":"Point","coordinates":[4.81092,52.34636]}},{"type":"Feature","properties":{"ID":224,"Name":"Oudenaardeplantsoen","Category":"B"},"geometry":{"type":"Point","coordinates":[4.803954,52.344996]}},{"type":"Feature","properties":{"ID":225,"Name":"Cornelis Schuytstraat","Category":"B"},"geometry":{"type":"Point","coordinates":[4.8707,52.356018]}},{"type":"Feature","properties":{"ID":226,"Name":"Valeriusplein","Category":"B"},"geometry":{"type":"Point","coordinates":[4.863504,52.353226]}},{"type":"Feature","properties":{"ID":227,"Name":"Delflandlaan","Category":"B"},"geometry":{"type":"Point","coordinates":[4.840877,52.351551]}},{"type":"Feature","properties":{"ID":228,"Name":"Louwesweg","Category":"B"},"geometry":{"type":"Point","coordinates":[4.824626,52.346694]}},{"type":"Feature","properties":{"ID":229,"Name":"Johan Huizingalaan","Category":"B"},"geometry":{"type":"Point","coordinates":[4.827477,52.349164]}},{"type":"Feature","properties":{"ID":230,"Name":"Hoofddorpplein","Category":"B"},"geometry":{"type":"Point","coordinates":[4.849935,52.351309]}},{"type":"Feature","properties":{"ID":231,"Name":"Van Baerlestraat","Category":"B"},"geometry":{"type":"Point","coordinates":[4.878272,52.3585511]}},{"type":"Feature","properties":{"ID":232,"Name":"Prinses Irenestraat","Category":"B"},"geometry":{"type":"Point","coordinates":[4.876771,52.342904]}},{"type":"Feature","properties":{"ID":233,"Name":"Stadionweg / Beethovenstraat","Category":"B"},"geometry":{"type":"Point","coordinates":[4.876902,52.347097]}},{"type":"Feature","properties":{"ID":234,"Name":"Minervaplein","Category":"B"},"geometry":{"type":"Point","coordinates":[4.872528,52.346736]}},{"type":"Feature","properties":{"ID":235,"Name":"IJburg","Category":"B"},"geometry":{"type":"Point","coordinates":[5.004301,52.35095]}},{"type":"Feature","properties":{"ID":236,"Name":"Oostpoort","Category":"B"},"geometry":{"type":"Point","coordinates":[4.927077,52.357213]}},{"type":"Feature","properties":{"ID":237,"Name":"Muziekgebouw Bimhuis","Category":"B"},"geometry":{"type":"Point","coordinates":[4.913021,52.377247]}},{"type":"Feature","properties":{"ID":238,"Name":"Kattenburgerstraat","Category":"B"},"geometry":{"type":"Point","coordinates":[4.921578,52.376122]}},{"type":"Feature","properties":{"ID":239,"Name":"Zuiderzeeweg","Category":"B"},"geometry":{"type":"Point","coordinates":[4.96151,52.372026]}},{"type":"Feature","properties":{"ID":240,"Name":"Steigereiland","Category":"B"},"geometry":{"type":"Point","coordinates":[4.980435,52.362993]}},{"type":"Feature","properties":{"ID":241,"Name":"Vennepluimstraat","Category":"B"},"geometry":{"type":"Point","coordinates":[4.990809,52.357584]}},{"type":"Feature","properties":{"ID":242,"Name":"Diemerparklaan","Category":"B"},"geometry":{"type":"Point","coordinates":[4.995222,52.355237]}},{"type":"Feature","properties":{"ID":243,"Name":"Lumièrestraat","Category":"B"},"geometry":{"type":"Point","coordinates":[4.99964,52.352886]}},{"type":"Feature","properties":{"ID":244,"Name":"Zoutkeetsgracht","Category":"B"},"geometry":{"type":"Point","coordinates":[4.885239,52.388067]}},{"type":"Feature","properties":{"ID":245,"Name":"Beukenweg","Category":"B"},"geometry":{"type":"Point","coordinates":[4.91704,52.358589]}},{"type":"Feature","properties":{"ID":246,"Name":"Marnixplein","Category":"B"},"geometry":{"type":"Point","coordinates":[4.8784651,52.377477]}},{"type":"Feature","properties":{"ID":247,"Name":"Victorieplein","Category":"B"},"geometry":{"type":"Point","coordinates":[4.904905,52.346245]}},{"type":"Feature","properties":{"ID":248,"Name":"Wibautstraat","Category":"B"},"geometry":{"type":"Point","coordinates":[4.909558,52.357323]}},{"type":"Feature","properties":{"ID":249,"Name":"Lutmastraat","Category":"B"},"geometry":{"type":"Point","coordinates":[4.903209,52.351688]}},{"type":"Feature","properties":{"ID":250,"Name":"Amsteldijk","Category":"B"},"geometry":{"type":"Point","coordinates":[4.910978,52.347096]}},{"type":"Feature","properties":{"ID":251,"Name":"Muiderpoortstation","Category":"B"},"geometry":{"type":"Point","coordinates":[4.932956,52.360938]}},{"type":"Feature","properties":{"ID":252,"Name":"Fredrik Hendrikplantsoen","Category":"B"},"geometry":{"type":"Point","coordinates":[4.875341,52.378542]}},{"type":"Feature","properties":{"ID":253,"Name":"Amstelkade","Category":"B"},"geometry":{"type":"Point","coordinates":[4.904193,52.349068]}},{"type":"Feature","properties":{"ID":254,"Name":"Camperstraat","Category":"B"},"geometry":{"type":"Point","coordinates":[4.913602,52.358356]}},{"type":"Feature","properties":{"ID":255,"Name":"Van Woustraat / Ceintuurbaan","Category":"B"},"geometry":{"type":"Point","coordinates":[4.901243,52.354823]}},{"type":"Feature","properties":{"ID":256,"Name":"Tweede Van der Helststraat","Category":"B"},"geometry":{"type":"Point","coordinates":[4.894581,52.353255]}},{"type":"Feature","properties":{"ID":257,"Name":"Keizersgracht","Category":"B"},"geometry":{"type":"Point","coordinates":[4.898296,52.363839]}},{"type":"Feature","properties":{"ID":258,"Name":"Prinsengracht","Category":"B"},"geometry":{"type":"Point","coordinates":[4.898983,52.362122]}},{"type":"Feature","properties":{"ID":259,"Name":"Frederiksplein / Stadhouderskade","Category":"B"},"geometry":{"type":"Point","coordinates":[4.898756,52.359524]}},{"type":"Feature","properties":{"ID":260,"Name":"Station Zuid","Category":"B"},"geometry":{"type":"Point","coordinates":[4.873144,52.340165]}},{"type":"Feature","properties":{"ID":261,"Name":"A.J. Ernststraat","Category":"B"},"geometry":{"type":"Point","coordinates":[4.868837,52.33143]}},{"type":"Feature","properties":{"ID":262,"Name":"Parnassusweg","Category":"B"},"geometry":{"type":"Point","coordinates":[4.868696,52.338103]}},{"type":"Feature","properties":{"ID":263,"Name":"Uilenstede","Category":"B"},"geometry":{"type":"Point","coordinates":[4.869149,52.321631]}},{"type":"Feature","properties":{"ID":264,"Name":"Olympisch Stadion","Category":"B"},"geometry":{"type":"Point","coordinates":[4.856892,52.343958]}},{"type":"Feature","properties":{"ID":265,"Name":"Zonnestein","Category":"B"},"geometry":{"type":"Point","coordinates":[4.872228,52.312372]}},{"type":"Feature","properties":{"ID":266,"Name":"Onderuit","Category":"B"},"geometry":{"type":"Point","coordinates":[4.872508,52.308284]}},{"type":"Feature","properties":{"ID":267,"Name":"Station Lelylaan","Category":"B"},"geometry":{"type":"Point","coordinates":[4.834373,52.357894]}},{"type":"Feature","properties":{"ID":268,"Name":"Isolatorweg","Category":"B"},"geometry":{"type":"Point","coordinates":[4.85083,52.395182]}},{"type":"Feature","properties":{"ID":269,"Name":"Gein","Category":"B"},"geometry":{"type":"Point","coordinates":[4.989227,52.296347]}},{"type":"Feature","properties":{"ID":270,"Name":"Overamstel","Category":"B"},"geometry":{"type":"Point","coordinates":[4.917802,52.331754]}},{"type":"Feature","properties":{"ID":271,"Name":"Reigersbos","Category":"B"},"geometry":{"type":"Point","coordinates":[4.974164,52.295619]}},{"type":"Feature","properties":{"ID":272,"Name":"Station Sloterdijk","Category":"B"},"geometry":{"type":"Point","coordinates":[4.838885,52.388603]}},{"type":"Feature","properties":{"ID":273,"Name":"Jan van Galenstraat","Category":"B"},"geometry":{"type":"Point","coordinates":[4.835498,52.373127]}},{"type":"Feature","properties":{"ID":274,"Name":"Burg. De Vlugtlaan","Category":"B"},"geometry":{"type":"Point","coordinates":[4.83788,52.378837]}},{"type":"Feature","properties":{"ID":275,"Name":"Henk Sneevlietweg","Category":"B"},"geometry":{"type":"Point","coordinates":[4.834481,52.346543]}},{"type":"Feature","properties":{"ID":276,"Name":"Heemstedestraat","Category":"B"},"geometry":{"type":"Point","coordinates":[4.834334,52.351505]}},{"type":"Feature","properties":{"ID":277,"Name":"Postjesweg","Category":"B"},"geometry":{"type":"Point","coordinates":[4.833949,52.364866]}},{"type":"Feature","properties":{"ID":278,"Name":"Amstelveenseweg","Category":"B"},"geometry":{"type":"Point","coordinates":[4.857271,52.338394]}},{"type":"Feature","properties":{"ID":279,"Name":"Station RAI","Category":"B"},"geometry":{"type":"Point","coordinates":[4.890724,52.337006]}},{"type":"Feature","properties":{"ID":280,"Name":"Strandvliet","Category":"B"},"geometry":{"type":"Point","coordinates":[4.941468,52.318424]}},{"type":"Feature","properties":{"ID":281,"Name":"Station Bijlmer ArenA","Category":"B"},"geometry":{"type":"Point","coordinates":[4.947191,52.312132]}},{"type":"Feature","properties":{"ID":282,"Name":"Bullewijk","Category":"B"},"geometry":{"type":"Point","coordinates":[4.952102,52.3068]}},{"type":"Feature","properties":{"ID":283,"Name":"Station Holendrecht","Category":"B"},"geometry":{"type":"Point","coordinates":[4.95998,52.298182]}},{"type":"Feature","properties":{"ID":284,"Name":"Station Duivendrecht","Category":"B"},"geometry":{"type":"Point","coordinates":[4.936487,52.323607]}},{"type":"Feature","properties":{"ID":285,"Name":"De Boelelaan/VU","Category":"B"},"geometry":{"type":"Point","coordinates":[4.8683844,52.3349118]}},{"type":"Feature","properties":{"ID":286,"Name":"Van Boshuizenstraat","Category":"B"},"geometry":{"type":"Point","coordinates":[4.868966,52.325405]}},{"type":"Feature","properties":{"ID":287,"Name":"Spaklerweg","Category":"B"},"geometry":{"type":"Point","coordinates":[4.920966,52.340042]}},{"type":"Feature","properties":{"ID":288,"Name":"Centraal Station","Category":"B"},"geometry":{"type":"Point","coordinates":[4.899773,52.378027]}},{"type":"Feature","properties":{"ID":289,"Name":"Waterlooplein","Category":"B"},"geometry":{"type":"Point","coordinates":[4.902401,52.367349]}},{"type":"Feature","properties":{"ID":290,"Name":"Weesperplein","Category":"B"},"geometry":{"type":"Point","coordinates":[4.907978,52.361173]}},{"type":"Feature","properties":{"ID":291,"Name":"Wibautstraat","Category":"B"},"geometry":{"type":"Point","coordinates":[4.912123,52.354333]}},{"type":"Feature","properties":{"ID":292,"Name":"Olympiaweg","Category":"B"},"geometry":{"type":"Point","coordinates":[4.858524,52.345272]}},{"type":"Feature","properties":{"ID":293,"Name":"Olympiaplein","Category":"B"},"geometry":{"type":"Point","coordinates":[4.866257,52.34634]}},{"type":"Feature","properties":{"ID":294,"Name":"Gerrit van der Veenstraat","Category":"B"},"geometry":{"type":"Point","coordinates":[4.877276,52.349099]}},{"type":"Feature","properties":{"ID":295,"Name":"Nieuwmarkt","Category":"B"},"geometry":{"type":"Point","coordinates":[4.901301,52.37192]}},{"type":"Feature","properties":{"ID":296,"Name":"Amstelstation","Category":"B"},"geometry":{"type":"Point","coordinates":[4.918297,52.346663]}},{"type":"Feature","properties":{"ID":297,"Name":"Van der Madeweg","Category":"B"},"geometry":{"type":"Point","coordinates":[4.9303,52.329678]}},{"type":"Feature","properties":{"ID":298,"Name":"Verrijn Stuartweg","Category":"B"},"geometry":{"type":"Point","coordinates":[4.966759,52.328624]}},{"type":"Feature","properties":{"ID":299,"Name":"Station Ganzenhoef","Category":"B"},"geometry":{"type":"Point","coordinates":[4.973044,52.323631]}},{"type":"Feature","properties":{"ID":300,"Name":"Kraaiennest station","Category":"B"},"geometry":{"type":"Point","coordinates":[4.979454,52.316618]}},{"type":"Feature","properties":{"ID":301,"Name":"Gaasperplas","Category":"B"},"geometry":{"type":"Point","coordinates":[4.984549,52.311035]}},{"type":"Feature","properties":{"ID":302,"Name":"Venserpolder","Category":"B"},"geometry":{"type":"Point","coordinates":[4.946229,52.326737]}},{"type":"Feature","properties":{"ID":303,"Name":"Witte de Withstraat","Category":"B"},"geometry":{"type":"Point","coordinates":[4.859676,52.364725]}},{"type":"Feature","properties":{"ID":304,"Name":"Willem Schoutenstraat","Category":"B"},"geometry":{"type":"Point","coordinates":[4.852482,52.367174]}},{"type":"Feature","properties":{"ID":305,"Name":"Admiraal De Ruijterweg","Category":"B"},"geometry":{"type":"Point","coordinates":[4.859967,52.371499]}},{"type":"Feature","properties":{"ID":306,"Name":"J.P. Heijestraat","Category":"B"},"geometry":{"type":"Point","coordinates":[4.862701,52.364811]}},{"type":"Feature","properties":{"ID":307,"Name":"Station Zuid","Category":"B"},"geometry":{"type":"Point","coordinates":[4.873144,52.340165]}},{"type":"Feature","properties":{"ID":308,"Name":"Station Lelylaan","Category":"B"},"geometry":{"type":"Point","coordinates":[4.834373,52.357894]}},{"type":"Feature","properties":{"ID":309,"Name":"Station Sloterdijjk","Category":"B"},"geometry":{"type":"Point","coordinates":[4.838885,52.388603]}},{"type":"Feature","properties":{"ID":310,"Name":"Jan van Galenstraat","Category":"B"},"geometry":{"type":"Point","coordinates":[4.835498,52.373127]}},{"type":"Feature","properties":{"ID":311,"Name":"Burg. De Vlugtlaan","Category":"B"},"geometry":{"type":"Point","coordinates":[4.83788,52.378837]}},{"type":"Feature","properties":{"ID":312,"Name":"Heemstedestraat","Category":"B"},"geometry":{"type":"Point","coordinates":[4.834334,52.351505]}},{"type":"Feature","properties":{"ID":313,"Name":"Amstelveenseweg","Category":"B"},"geometry":{"type":"Point","coordinates":[4.857271,52.338394]}},{"type":"Feature","properties":{"ID":314,"Name":"Station RAI","Category":"B"},"geometry":{"type":"Point","coordinates":[4.890724,52.337006]}},{"type":"Feature","properties":{"ID":315,"Name":"Centraal Station","Category":"B"},"geometry":{"type":"Point","coordinates":[4.899773,52.378027]}},{"type":"Feature","properties":{"ID":316,"Name":"Waterlooplein","Category":"B"},"geometry":{"type":"Point","coordinates":[4.902401,52.367349]}},{"type":"Feature","properties":{"ID":317,"Name":"Weesperplein","Category":"B"},"geometry":{"type":"Point","coordinates":[4.907978,52.361173]}},{"type":"Feature","properties":{"ID":318,"Name":"Amstelstation","Category":"B"},"geometry":{"type":"Point","coordinates":[4.918297,52.346663]}},{"type":"Feature","properties":{"ID":319,"Name":"Station Diemen-Zuid","Category":"B"},"geometry":{"type":"Point","coordinates":[4.956447,52.33027]}},{"type":"Feature","properties":{"ID":320,"Name":"Bob Haarmslaan","Category":"B"},"geometry":{"type":"Point","coordinates":[4.968961,52.368939]}},{"type":"Feature","properties":{"ID":321,"Name":"Westermarkt","Category":"B"},"geometry":{"type":"Point","coordinates":[4.884106,52.374035]}},{"type":"Feature","properties":{"ID":322,"Name":"Europaplein","Category":"B"},"geometry":{"type":"Point","coordinates":[4.891987,52.340218]}},{"type":"Feature","properties":{"ID":323,"Name":"Noorderpark","Category":"B"},"geometry":{"type":"Point","coordinates":[4.918652,52.388902]}},{"type":"Feature","properties":{"ID":324,"Name":"Noord","Category":"B"},"geometry":{"type":"Point","coordinates":[4.932229,52.401877]}},{"type":"Feature","properties":{"ID":325,"Name":"Rokin","Category":"B"},"geometry":{"type":"Point","coordinates":[4.892378,52.3698]}},{"type":"Feature","properties":{"ID":326,"Name":"Vijzelgracht","Category":"B"},"geometry":{"type":"Point","coordinates":[4.890943,52.359632]}},{"type":"Feature","properties":{"ID":327,"Name":"De Pijp","Category":"B"},"geometry":{"type":"Point","coordinates":[4.891107,52.35279]}},{"type":"Feature","properties":{"ID":328,"Name":"Museumplein","Category":"B"},"geometry":{"type":"Point","coordinates":[4.8812322,52.3588611]}},{"type":"Feature","properties":{"ID":329,"Name":"Hugo de Grootplein","Category":"B"},"geometry":{"type":"Point","coordinates":[4.8727694,52.3746846]}},{"type":"Feature","properties":{"ID":330,"Name":"Drenthepark","Category":"B"},"geometry":{"type":"Point","coordinates":[4.8893095,52.3361529]}},{"type":"Feature","properties":{"ID":331,"Name":"Bloemgracht","Category":"B"},"geometry":{"type":"Point","coordinates":[4.8764506,52.3743398]}},{"type":"Feature","properties":{"ID":332,"Name":"Jan van Galenstraat","Category":"B"},"geometry":{"type":"Point","coordinates":[4.8492708,52.3719979]}},{"type":"Feature","properties":{"ID":333,"Name":"De Rijpstraat","Category":"B"},"geometry":{"type":"Point","coordinates":[4.8578315,52.3771294]}},{"type":"Feature","properties":{"ID":334,"Name":"VUmc","Category":"B"},"geometry":{"type":"Point","coordinates":[4.8598291,52.3351784]}},{"type":"Feature","properties":{"ID":335,"Name":"Muntplein","Category":"B"},"geometry":{"type":"Point","coordinates":[4.8931841,52.366371]}},{"type":"Feature","properties":{"ID":336,"Name":"Kronenburg","Category":"B"},"geometry":{"type":"Point","coordinates":[4.8703396,52.3164517]}},{"type":"Feature","properties":{"ID":337,"Name":"Oranjebaan","Category":"B"},"geometry":{"type":"Point","coordinates":[4.8717813,52.3029039]}},{"type":"Feature","properties":{"ID":338,"Name":"Eerste Marnixdwarsstraat","Category":"B"},"geometry":{"type":"Point","coordinates":[4.8820335,52.3830358]}},{"type":"Feature","properties":{"ID":339,"Name":"Plantage Lepellaan","Category":"B"},"geometry":{"type":"Point","coordinates":[4.9154802,52.3651306]}},{"type":"Feature","properties":{"ID":340,"Name":"Ouderkerkslaan","Category":"B"},"geometry":{"type":"Point","coordinates":[4.8677556,52.2965852]}},{"type":"Feature","properties":{"ID":341,"Name":"Sportlaan","Category":"B"},"geometry":{"type":"Point","coordinates":[4.8636541,52.2901479]}},{"type":"Feature","properties":{"ID":342,"Name":"Meent","Category":"B"},"geometry":{"type":"Point","coordinates":[4.8571498,52.2810117]}},{"type":"Feature","properties":{"ID":343,"Name":"Brink","Category":"B"},"geometry":{"type":"Point","coordinates":[4.8518489,52.2805421]}},{"type":"Feature","properties":{"ID":344,"Name":"Poortwachter","Category":"B"},"geometry":{"type":"Point","coordinates":[4.8454439,52.2832311]}},{"type":"Feature","properties":{"ID":345,"Name":"Sacharovlaan","Category":"B"},"geometry":{"type":"Point","coordinates":[4.8324823,52.2822746]}},{"type":"Feature","properties":{"ID":346,"Name":"Westwijk","Category":"B"},"geometry":{"type":"Point","coordinates":[4.8307936,52.2745937]}}]}