{"type":"FeatureCollection","features":[{"type":"Feature","properties":{"ID":1,"Name":"Iskcon","Category":"A"},"geometry":{"type":"Point","coordinates":[77.5510424,13.0099295]}},{"type":"Feature","properties":{"ID":2,"Name":"KC General","Category":"A"},"geometry":{"type":"Point","coordinates":[77.569264,12.996302]}},{"type":"Feature","properties":{"ID":3,"Name":"Phoenix Market city","Category":"A"},"geometry":{"type":"Point","coordinates":[77.696144,12.995638]}},{"type":"Feature","properties":{"ID":4,"Name":"Jayanagar","Category":"A"},"geometry":{"type":"Point","coordinates":[77.582962,12.92797]}},{"type":"Feature","properties":{"ID":5,"Name":"World Trade Centre","Category":"A"},"geometry":{"type":"Point","coordinates":[77.556154,13.011948]}},{"type":"Feature","properties":{"ID":7,"Name":"Chinnaswamy Stadium Brookfield","Category":"A"},"geometry":{"type":"Point","coordinates":[77.598836,12.977755]}},{"type":"Feature","properties":{"ID":8,"Name":"Indiranagar","Category":"A"},"geometry":{"type":"Point","coordinates":[77.643445,12.976348]}},{"type":"Feature","properties":{"ID":9,"Name":"Oberoi","Category":"A"},"geometry":{"type":"Point","coordinates":[77.618163,12.973412]}},{"type":"Feature","properties":{"ID":10,"Name":"Hebbal","Category":"A"},"geometry":{"type":"Point","coordinates":[77.597106,13.034926]}},{"type":"Feature","properties":{"ID":11,"Name":"Aachar Residency","Category":"A"},"geometry":{"type":"Point","coordinates":[77.577953,13.014147]}},{"type":"Feature","properties":{"ID":12,"Name":"KR Marjet","Category":"A"},"geometry":{"type":"Point","coordinates":[77.57692,12.965617]}},{"type":"Feature","properties":{"ID":13,"Name":"Prestige Misty Waters","Category":"A"},"geometry":{"type":"Point","coordinates":[77.601969,13.046336]}},{"type":"Feature","properties":{"ID":14,"Name":"83 1 J Cross","Category":"A"},"geometry":{"type":"Point","coordinates":[77.534173,12.989753]}},{"type":"Feature","properties":{"ID":15,"Name":"166 1 J Cross","Category":"A"},"geometry":{"type":"Point","coordinates":[77.53493,12.988977]}},{"type":"Feature","properties":{"ID":17,"Name":"Prestige Falcon","Category":"A"},"geometry":{"type":"Point","coordinates":[77.56343,12.884725]}},{"type":"Feature","properties":{"ID":19,"Name":"Koramangala","Category":"A"},"geometry":{"type":"Point","coordinates":[77.623006,12.937277]}},{"type":"Feature","properties":{"ID":20,"Name":"Silk board","Category":"A"},"geometry":{"type":"Point","coordinates":[77.621199,12.916508]}},{"type":"Feature","properties":{"ID":21,"Name":"Sadashivanagar","Category":"A"},"geometry":{"type":"Point","coordinates":[77.580828,13.007321]}},{"type":"Feature","properties":{"ID":22,"Name":"Manyata","Category":"A"},"geometry":{"type":"Point","coordinates":[77.620982,13.043513]}},{"type":"Feature","properties":{"ID":23,"Name":"Kengeri","Category":"A"},"geometry":{"type":"Point","coordinates":[77.483105,12.899967]}},{"type":"Feature","properties":{"ID":24,"Name":"Lalbagh","Category":"A"},"geometry":{"type":"Point","coordinates":[77.585115,12.950684]}},{"type":"Feature","properties":{"ID":25,"Name":"Brookefield","Category":"A"},"geometry":{"type":"Point","coordinates":[77.714679,12.959896]}},{"type":"Feature","properties":{"ID":26,"Name":"Bangalore City Junction","Category":"A"},"geometry":{"type":"Point","coordinates":[77.569802,12.978115]}},{"type":"Feature","properties":{"ID":27,"Name":"Kempegowda International Airport Terminal 1","Category":"A"},"geometry":{"type":"Point","coordinates":[77.707531,13.198038]}},{"type":"Feature","properties":{"ID":28,"Name":"Christ University","Category":"A"},"geometry":{"type":"Point","coordinates":[77.606129,12.936218]}},{"type":"Feature","properties":{"ID":29,"Name":"Indian Institute Management, Bengaluru","Category":"A"},"geometry":{"type":"Point","coordinates":[77.602172,12.895733]}},{"type":"Feature","properties":{"ID":30,"Name":"Salarpuria Sattva","Category":"A"},"geometry":{"type":"Point","coordinates":[77.703866,13.01912]}},{"type":"Feature","properties":{"ID":31,"Name":"Koramangala 7th Block","Category":"A"},"geometry":{"type":"Point","coordinates":[77.61757,12.937309]}},{"type":"Feature","properties":{"ID":32,"Name":"Rangashankara","Category":"A"},"geometry":{"type":"Point","coordinates":[77.587048,12.911522]}},{"type":"Feature","properties":{"ID":34,"Name":"VV Puram","Category":"A"},"geometry":{"type":"Point","coordinates":[77.577757,12.950902]}},{"type":"Feature","properties":{"ID":35,"Name":"Madivala Lake","Category":"A"},"geometry":{"type":"Point","coordinates":[77.61255641,12.90435911]}},{"type":"Feature","properties":{"ID":36,"Name":"BGS Global Hospitals","Category":"A"},"geometry":{"type":"Point","coordinates":[77.49749912,12.90304553]}},{"type":"Feature","properties":{"ID":37,"Name":"Kidwai Memorial Institute of Oncology","Category":"A"},"geometry":{"type":"Point","coordinates":[77.59817367,12.93638485]}},{"type":"Feature","properties":{"ID":38,"Name":"Thyagarajanagar","Category":"A"},"geometry":{"type":"Point","coordinates":[77.56847228,12.93263896]}},{"type":"Feature","properties":{"ID":39,"Name":"Domlur","Category":"A"},"geometry":{"type":"Point","coordinates":[77.63808814,12.95955871]}},{"type":"Feature","properties":{"ID":40,"Name":"Attiguppe","Category":"A"},"geometry":{"type":"Point","coordinates":[77.54001516,12.96491612]}},{"type":"Feature","properties":{"ID":41,"Name":"Hennur","Category":"A"},"geometry":{"type":"Point","coordinates":[77.6287878,13.0269523]}},{"type":"Feature","properties":{"ID":42,"Name":"Dr. Ambedkar Medical College Hospital","Category":"A"},"geometry":{"type":"Point","coordinates":[77.61310685,13.02182916]}},{"type":"Feature","properties":{"ID":43,"Name":"Bangalore University","Category":"A"},"geometry":{"type":"Point","coordinates":[77.51387167,12.94103989]}},{"type":"Feature","properties":{"ID":44,"Name":"Peenya Industrial Area","Category":"A"},"geometry":{"type":"Point","coordinates":[77.52738465,13.03086351]}},{"type":"Feature","properties":{"ID":45,"Name":"Mathikere","Category":"A"},"geometry":{"type":"Point","coordinates":[77.5583932,13.03285822]}},{"type":"Feature","properties":{"ID":46,"Name":"Indian Institute of Science","Category":"A"},"geometry":{"type":"Point","coordinates":[77.56724933,13.02131564]}},{"type":"Feature","properties":{"ID":47,"Name":"Nandini Layout","Category":"A"},"geometry":{"type":"Point","coordinates":[77.53627711,13.01222348]}},{"type":"Feature","properties":{"ID":48,"Name":"Jindal Naturecare Institute","Category":"A"},"geometry":{"type":"Point","coordinates":[77.48349427,13.05063859]}},{"type":"Feature","properties":{"ID":49,"Name":"Doddabidirakallu","Category":"A"},"geometry":{"type":"Point","coordinates":[77.49245181,13.03435294]}},{"type":"Feature","properties":{"ID":50,"Name":"Kendriya Vidyalaya NAL","Category":"A"},"geometry":{"type":"Point","coordinates":[77.65550039,12.96569614]}},{"type":"Feature","properties":{"ID":51,"Name":"Varthur","Category":"A"},"geometry":{"type":"Point","coordinates":[77.74713935,12.93929389]}},{"type":"Feature","properties":{"ID":52,"Name":"Begur Fort","Category":"A"},"geometry":{"type":"Point","coordinates":[77.62269638,12.87094776]}},{"type":"Feature","properties":{"ID":53,"Name":"Jayadeva","Category":"A"},"geometry":{"type":"Point","coordinates":[77.5822929,12.86350841]}},{"type":"Feature","properties":{"ID":54,"Name":"ISRO Layout","Category":"A"},"geometry":{"type":"Point","coordinates":[77.55689665,12.89894354]}},{"type":"Feature","properties":{"ID":55,"Name":"Tamarind","Category":"A"},"geometry":{"type":"Point","coordinates":[77.64759689,13.01273954]}},{"type":"Feature","properties":{"ID":56,"Name":"Cox Town","Category":"A"},"geometry":{"type":"Point","coordinates":[77.62002364,12.99658735]}},{"type":"Feature","properties":{"ID":57,"Name":"Banashankari","Category":"A"},"geometry":{"type":"Point","coordinates":[77.55046529,12.94198518]}},{"type":"Feature","properties":{"ID":58,"Name":"Sunkadakatte","Category":"A"},"geometry":{"type":"Point","coordinates":[77.50475587,12.99546763]}},{"type":"Feature","properties":{"ID":59,"Name":"Ullal","Category":"A"},"geometry":{"type":"Point","coordinates":[77.47662537,12.9600372]}},{"type":"Feature","properties":{"ID":60,"Name":"Cubbon Park","Category":"A"},"geometry":{"type":"Point","coordinates":[77.59253892,12.9743645]}},{"type":"Feature","properties":{"ID":61,"Name":"Bengaluru Palace","Category":"A"},"geometry":{"type":"Point","coordinates":[77.59204685,12.99857295]}},{"type":"Feature","properties":{"ID":62,"Name":"Turahalli","Category":"A"},"geometry":{"type":"Point","coordinates":[77.52730718,12.88766983]}},{"type":"Feature","properties":{"ID":18,"Name":"Nagarabhavi","Category":"A"},"geometry":{"type":"Point","coordinates":[77.51469154,12.96712228]}},{"type":"Feature","properties":{"ID":63,"Name":"Ozone Evergreen","Category":"A"},"geometry":{"type":"Point","coordinates":[77.66327982,12.90897359]}},{"type":"Feature","properties":{"ID":64,"Name":"Fortis Hospitals","Category":"A"},"geometry":{"type":"Point","coordinates":[77.55483316,12.98812758]}},{"type":"Feature","properties":{"ID":65,"Name":"Mantri Mall","Category":"A"},"geometry":{"type":"Point","coordinates":[77.57077478,12.99134812]}},{"type":"Feature","properties":{"ID":66,"Name":"Yelahanka","Category":"A"},"geometry":{"type":"Point","coordinates":[77.5858217,13.09957198]}},{"type":"Feature","properties":{"ID":67,"Name":"Chikkabanavara","Category":"A"},"geometry":{"type":"Point","coordinates":[77.5026577,13.07890927]}},{"type":"Feature","properties":{"ID":68,"Name":"Nelamangala","Category":"A"},"geometry":{"type":"Point","coordinates":[77.39622689,13.09259629]}},{"type":"Feature","properties":{"ID":69,"Name":"National Centre for Biological Sciences","Category":"A"},"geometry":{"type":"Point","coordinates":[77.57916067,13.07262349]}},{"type":"Feature","properties":{"ID":70,"Name":"Planetarium","Category":"A"},"geometry":{"type":"Point","coordinates":[77.58990438,12.98464307]}},{"type":"Feature","properties":{"ID":33,"Name":"Baiyappanahalli","Category":"A"},"geometry":{"type":"Point","coordinates":[77.65258801,12.99652273]}},{"type":"Feature","properties":{"ID":71,"Name":"Rajarajeshwarinagar","Category":"A"},"geometry":{"type":"Point","coordinates":[77.52499813,12.92935443]}},{"type":"Feature","properties":{"ID":72,"Name":"Saint Philomena's College of Nursing","Category":"A"},"geometry":{"type":"Point","coordinates":[77.61136353,12.96446959]}},{"type":"Feature","properties":{"ID":73,"Name":"Sree Kanteerava Stadium","Category":"A"},"geometry":{"type":"Point","coordinates":[77.59308734,12.96916335]}},{"type":"Feature","properties":{"ID":74,"Name":"Visvesvaraya Industrial and Technological Museum","Category":"A"},"geometry":{"type":"Point","coordinates":[77.59623417,12.97538006]}},{"type":"Feature","properties":{"ID":75,"Name":"St Joseph's University College","Category":"A"},"geometry":{"type":"Point","coordinates":[77.60415488,12.97078175]}},{"type":"Feature","properties":{"ID":76,"Name":"The Church of Jesus Christ of Latterday Saints","Category":"A"},"geometry":{"type":"Point","coordinates":[77.60369562,12.96690634]}},{"type":"Feature","properties":{"ID":77,"Name":"Chancery Pavilion","Category":"A"},"geometry":{"type":"Point","coordinates":[77.59870516,12.96590103]}},{"type":"Feature","properties":{"ID":78,"Name":"Saint Martha's Hospital","Category":"A"},"geometry":{"type":"Point","coordinates":[77.58587837,12.97074279]}},{"type":"Feature","properties":{"ID":79,"Name":"Bangalore Fort","Category":"A"},"geometry":{"type":"Point","coordinates":[77.57585942,12.96297367]}},{"type":"Feature","properties":{"ID":80,"Name":"Chamarajapet","Category":"A"},"geometry":{"type":"Point","coordinates":[77.56440125,12.95795551]}},{"type":"Feature","properties":{"ID":81,"Name":"Sri Gavigangadhareshwara Swamy Temple","Category":"A"},"geometry":{"type":"Point","coordinates":[77.56295888,12.9479399]}},{"type":"Feature","properties":{"ID":82,"Name":"Ramaanjaneya Temple","Category":"A"},"geometry":{"type":"Point","coordinates":[77.56316628,12.94472081]}},{"type":"Feature","properties":{"ID":83,"Name":"Sri Aurobindo Memorial School","Category":"A"},"geometry":{"type":"Point","coordinates":[77.56845313,12.9254268]}},{"type":"Feature","properties":{"ID":84,"Name":"National College","Category":"A"},"geometry":{"type":"Point","coordinates":[77.57896619,12.92579047]}},{"type":"Feature","properties":{"ID":85,"Name":"ITI Cricket Ground","Category":"A"},"geometry":{"type":"Point","coordinates":[77.68785518,13.00847219]}},{"type":"Feature","properties":{"ID":86,"Name":"Whitefield","Category":"A"},"geometry":{"type":"Point","coordinates":[77.74989064,12.97187741]}},{"type":"Feature","properties":{"ID":87,"Name":"GE Global Research","Category":"A"},"geometry":{"type":"Point","coordinates":[77.7245382,12.9734498]}},{"type":"Feature","properties":{"ID":88,"Name":"Bellandur","Category":"A"},"geometry":{"type":"Point","coordinates":[77.67649866,12.93045474]}},{"type":"Feature","properties":{"ID":89,"Name":"Karnataka Chitrakala Parishath","Category":"A"},"geometry":{"type":"Point","coordinates":[77.58105973,12.98958101]}},{"type":"Feature","properties":{"ID":90,"Name":"Bangalore Golf Course","Category":"A"},"geometry":{"type":"Point","coordinates":[77.58686455,12.98789407]}},{"type":"Feature","properties":{"ID":91,"Name":"National Gallery of Modern Art","Category":"A"},"geometry":{"type":"Point","coordinates":[77.58806792,12.98946308]}},{"type":"Feature","properties":{"ID":92,"Name":"Alliance Francaise","Category":"A"},"geometry":{"type":"Point","coordinates":[77.59678036,12.99140342]}},{"type":"Feature","properties":{"ID":93,"Name":"Ambedkar Bhavan","Category":"A"},"geometry":{"type":"Point","coordinates":[77.59545738,12.99246913]}},{"type":"Feature","properties":{"ID":94,"Name":"Mount Carmel College","Category":"A"},"geometry":{"type":"Point","coordinates":[77.58771822,12.99316222]}},{"type":"Feature","properties":{"ID":95,"Name":"National Tuberculosis Institute","Category":"A"},"geometry":{"type":"Point","coordinates":[77.58327096,13.00125665]}},{"type":"Feature","properties":{"ID":96,"Name":"Kavalbyrasandra","Category":"A"},"geometry":{"type":"Point","coordinates":[77.60510187,13.01658658]}},{"type":"Feature","properties":{"ID":97,"Name":"Bhoopasandra","Category":"A"},"geometry":{"type":"Point","coordinates":[77.57799417,13.04164353]}},{"type":"Feature","properties":{"ID":98,"Name":"Indian Space Research Organisation Vijinapura","Category":"A"},"geometry":{"type":"Point","coordinates":[77.57153559,13.03586044]}},{"type":"Feature","properties":{"ID":99,"Name":"RMV Club","Category":"A"},"geometry":{"type":"Point","coordinates":[77.56946096,13.03802784]}},{"type":"Feature","properties":{"ID":100,"Name":"Jayaprakash Narayan Park","Category":"A"},"geometry":{"type":"Point","coordinates":[77.55106336,13.03497006]}},{"type":"Feature","properties":{"ID":101,"Name":"Koramangala Indoor Stadium","Category":"A"},"geometry":{"type":"Point","coordinates":[77.62261833,12.94354398]}},{"type":"Feature","properties":{"ID":102,"Name":"Mallathahalli Lake","Category":"A"},"geometry":{"type":"Point","coordinates":[77.49650545,12.96569198]}},{"type":"Feature","properties":{"ID":103,"Name":"Ulsoor Lake","Category":"A"},"geometry":{"type":"Point","coordinates":[77.62215304,12.98499048]}},{"type":"Feature","properties":{"ID":104,"Name":"Frazer Town","Category":"A"},"geometry":{"type":"Point","coordinates":[77.61313925,12.99704329]}},{"type":"Feature","properties":{"ID":105,"Name":"JC Nagar","Category":"A"},"geometry":{"type":"Point","coordinates":[77.59392217,13.01046899]}},{"type":"Feature","properties":{"ID":106,"Name":"Yeshwanthpur","Category":"A"},"geometry":{"type":"Point","coordinates":[77.55253894,13.02364609]}},{"type":"Feature","properties":{"ID":107,"Name":"Ullas Theatre","Category":"A"},"geometry":{"type":"Point","coordinates":[77.55146747,13.01994612]}},{"type":"Feature","properties":{"ID":108,"Name":"Laggere","Category":"A"},"geometry":{"type":"Point","coordinates":[77.52173432,13.01055212]}},{"type":"Feature","properties":{"ID":109,"Name":"Metro Cash and Carry","Category":"A"},"geometry":{"type":"Point","coordinates":[77.56132122,12.96544056]}},{"type":"Feature","properties":{"ID":110,"Name":"DRDO Residential","Category":"A"},"geometry":{"type":"Point","coordinates":[77.66256213,12.98803125]}},{"type":"Feature","properties":{"ID":111,"Name":"Kaggadasapura","Category":"A"},"geometry":{"type":"Point","coordinates":[77.68639224,12.98612517]}},{"type":"Feature","properties":{"ID":112,"Name":"Bowring and Lady Curzon Hospitals","Category":"A"},"geometry":{"type":"Point","coordinates":[77.60451378,12.9834428]}},{"type":"Feature","properties":{"ID":113,"Name":"Racecourse","Category":"A"},"geometry":{"type":"Point","coordinates":[77.58504961,12.98146985]}},{"type":"Feature","properties":{"ID":114,"Name":"Taj West End","Category":"A"},"geometry":{"type":"Point","coordinates":[77.5848384,12.98471638]}},{"type":"Feature","properties":{"ID":115,"Name":"Prashanth Nagar","Category":"A"},"geometry":{"type":"Point","coordinates":[77.53096634,12.97734063]}},{"type":"Feature","properties":{"ID":120,"Name":"Hampi Nagar","Category":"A"},"geometry":{"type":"Point","coordinates":[77.53637659,12.95791091]}},{"type":"Feature","properties":{"ID":116,"Name":"Anjanapura","Category":"A"},"geometry":{"type":"Point","coordinates":[77.55586879,12.86177108]}},{"type":"Feature","properties":{"ID":117,"Name":"Sadaran Bakers","Category":"A"},"geometry":{"type":"Point","coordinates":[77.48624406,12.92926536]}},{"type":"Feature","properties":{"ID":118,"Name":"Bhuvaneshwari Nagar","Category":"A"},"geometry":{"type":"Point","coordinates":[77.49048276,12.94496448]}},{"type":"Feature","properties":{"ID":119,"Name":"NCERT","Category":"A"},"geometry":{"type":"Point","coordinates":[77.5437418,12.92965674]}},{"type":"Feature","properties":{"ID":121,"Name":"Ittamadu","Category":"A"},"geometry":{"type":"Point","coordinates":[77.5456056,12.92331539]}},{"type":"Feature","properties":{"ID":122,"Name":"Chikkalasandra","Category":"A"},"geometry":{"type":"Point","coordinates":[77.54766098,12.91243577]}},{"type":"Feature","properties":{"ID":123,"Name":"Padmanabhanagar","Category":"A"},"geometry":{"type":"Point","coordinates":[77.5576399,12.9182846]}},{"type":"Feature","properties":{"ID":124,"Name":"Dayanand Sagar Institutions","Category":"A"},"geometry":{"type":"Point","coordinates":[77.56619574,12.90833138]}},{"type":"Feature","properties":{"ID":125,"Name":"Sarakki Kere","Category":"A"},"geometry":{"type":"Point","coordinates":[77.57986829,12.89735561]}},{"type":"Feature","properties":{"ID":126,"Name":"Hulimavu","Category":"A"},"geometry":{"type":"Point","coordinates":[77.60156129,12.87005195]}},{"type":"Feature","properties":{"ID":127,"Name":"Green Orchard Apartments","Category":"A"},"geometry":{"type":"Point","coordinates":[77.60992232,12.88471989]}},{"type":"Feature","properties":{"ID":128,"Name":"Purva Westend","Category":"A"},"geometry":{"type":"Point","coordinates":[77.63860724,12.88979942]}},{"type":"Feature","properties":{"ID":129,"Name":"Kudlu","Category":"A"},"geometry":{"type":"Point","coordinates":[77.65458871,12.8889248]}},{"type":"Feature","properties":{"ID":130,"Name":"Shivapura","Category":"A"},"geometry":{"type":"Point","coordinates":[77.50639418,13.02579839]}},{"type":"Feature","properties":{"ID":131,"Name":"Kalyan Nagar","Category":"A"},"geometry":{"type":"Point","coordinates":[77.63725368,13.02418975]}},{"type":"Feature","properties":{"ID":132,"Name":"Kushal Nagar","Category":"A"},"geometry":{"type":"Point","coordinates":[77.61804808,13.01607533]}},{"type":"Feature","properties":{"ID":133,"Name":"Banaswadi","Category":"A"},"geometry":{"type":"Point","coordinates":[77.62897321,13.00879103]}},{"type":"Feature","properties":{"ID":134,"Name":"Commercial Street","Category":"A"},"geometry":{"type":"Point","coordinates":[77.60859236,12.98255317]}},{"type":"Feature","properties":{"ID":135,"Name":"ASC Golf Course","Category":"A"},"geometry":{"type":"Point","coordinates":[77.63245846,12.95066869]}},{"type":"Feature","properties":{"ID":136,"Name":"Sri Jayadeva Institute of Cardiology","Category":"A"},"geometry":{"type":"Point","coordinates":[77.59971089,12.91860027]}},{"type":"Feature","properties":{"ID":137,"Name":"Wilson Garden","Category":"A"},"geometry":{"type":"Point","coordinates":[77.59748997,12.95111541]}},{"type":"Feature","properties":{"ID":138,"Name":"Shoonya Centre for Art","Category":"A"},"geometry":{"type":"Point","coordinates":[77.58747902,12.9596085]}},{"type":"Feature","properties":{"ID":139,"Name":"National College","Category":"A"},"geometry":{"type":"Point","coordinates":[77.57291742,12.94887811]}},{"type":"Feature","properties":{"ID":140,"Name":"Fort High School","Category":"A"},"geometry":{"type":"Point","coordinates":[77.57353042,12.95850657]}},{"type":"Feature","properties":{"ID":141,"Name":"Vidhana Soudha","Category":"A"},"geometry":{"type":"Point","coordinates":[77.59055372,12.97976885]}},{"type":"Feature","properties":{"ID":142,"Name":"Central College Grounds","Category":"A"},"geometry":{"type":"Point","coordinates":[77.5804203,12.97534436]}},{"type":"Feature","properties":{"ID":143,"Name":"Kasturi Bhai Nagar","Category":"A"},"geometry":{"type":"Point","coordinates":[77.54743027,12.95496871]}},{"type":"Feature","properties":{"ID":144,"Name":"MC Modi Eye Hospital","Category":"A"},"geometry":{"type":"Point","coordinates":[77.54600189,12.99810354]}},{"type":"Feature","properties":{"ID":145,"Name":"Chowdiah Memorial Hall","Category":"A"},"geometry":{"type":"Point","coordinates":[77.57550074,13.0067167]}},{"type":"Feature","properties":{"ID":146,"Name":"Sankey Tank","Category":"A"},"geometry":{"type":"Point","coordinates":[77.5740631,13.01214907]}},{"type":"Feature","properties":{"ID":147,"Name":"Bengaluru Santhe","Category":"A"},"geometry":{"type":"Point","coordinates":[77.64707347,12.98693015]}},{"type":"Feature","properties":{"ID":148,"Name":"Big Bazaar","Category":"A"},"geometry":{"type":"Point","coordinates":[77.6582368,12.99134454]}},{"type":"Feature","properties":{"ID":149,"Name":"Malleshpalya","Category":"A"},"geometry":{"type":"Point","coordinates":[77.67560568,12.97764933]}},{"type":"Feature","properties":{"ID":150,"Name":"Krishnarajapuram","Category":"A"},"geometry":{"type":"Point","coordinates":[77.67392318,13.00229093]}},{"type":"Feature","properties":{"ID":151,"Name":"Agara","Category":"A"},"geometry":{"type":"Point","coordinates":[77.64263562,12.92401817]}},{"type":"Feature","properties":{"ID":152,"Name":"HSR Layout","Category":"A"},"geometry":{"type":"Point","coordinates":[77.6405003,12.91107697]}},{"type":"Feature","properties":{"ID":153,"Name":"Hongasandra","Category":"A"},"geometry":{"type":"Point","coordinates":[77.62691003,12.89422299]}},{"type":"Feature","properties":{"ID":154,"Name":"Chikkabegur","Category":"A"},"geometry":{"type":"Point","coordinates":[77.63701029,12.88372964]}},{"type":"Feature","properties":{"ID":155,"Name":"Alankar Plaza","Category":"A"},"geometry":{"type":"Point","coordinates":[77.57659778,12.97407258]}},{"type":"Feature","properties":{"ID":156,"Name":"Goripalya","Category":"A"},"geometry":{"type":"Point","coordinates":[77.55466072,12.96557742]}},{"type":"Feature","properties":{"ID":157,"Name":"Kaveri Layout","Category":"A"},"geometry":{"type":"Point","coordinates":[77.52724846,12.97281616]}},{"type":"Feature","properties":{"ID":158,"Name":"BEML Layout","Category":"A"},"geometry":{"type":"Point","coordinates":[77.52158037,12.90812869]}},{"type":"Feature","properties":{"ID":159,"Name":"Kengeri","Category":"A"},"geometry":{"type":"Point","coordinates":[77.48177026,12.91854797]}},{"type":"Feature","properties":{"ID":160,"Name":"Jalahalli","Category":"A"},"geometry":{"type":"Point","coordinates":[77.54879605,13.04643049]}},{"type":"Feature","properties":{"ID":161,"Name":"Rajajinagar IT Park","Category":"A"},"geometry":{"type":"Point","coordinates":[77.55115065,12.9783294]}},{"type":"Feature","properties":{"ID":162,"Name":"Austin Town","Category":"A"},"geometry":{"type":"Point","coordinates":[77.61940359,12.95673232]}},{"type":"Feature","properties":{"ID":163,"Name":"Madiwala","Category":"A"},"geometry":{"type":"Point","coordinates":[77.61771672,12.92124828]}},{"type":"Feature","properties":{"ID":164,"Name":"Cottonpet","Category":"A"},"geometry":{"type":"Point","coordinates":[77.5670199,12.96556188]}},{"type":"Feature","properties":{"ID":165,"Name":"Lumbini","Category":"A"},"geometry":{"type":"Point","coordinates":[77.6102352,13.0426237]}},{"type":"Feature","properties":{"ID":166,"Name":"Thanisandra","Category":"A"},"geometry":{"type":"Point","coordinates":[77.63483736,13.05547801]}},{"type":"Feature","properties":{"ID":167,"Name":"Horamavu","Category":"A"},"geometry":{"type":"Point","coordinates":[77.6615771,13.02653023]}},{"type":"Feature","properties":{"ID":168,"Name":"Narayana Apartments","Category":"A"},"geometry":{"type":"Point","coordinates":[77.60140333,13.02620983]}},{"type":"Feature","properties":{"ID":169,"Name":"Bangalore City Junction","Category":"B"},"geometry":{"type":"Point","coordinates":[77.5692678,12.9783064]}},{"type":"Feature","properties":{"ID":170,"Name":"Trinity","Category":"B"},"geometry":{"type":"Point","coordinates":[77.617013,12.9729953]}},{"type":"Feature","properties":{"ID":171,"Name":"KIA Halt","Category":"B"},"geometry":{"type":"Point","coordinates":[77.6760125,13.2106203]}},{"type":"Feature","properties":{"ID":172,"Name":"Halasuru","Category":"B"},"geometry":{"type":"Point","coordinates":[77.626705,12.9764915]}},{"type":"Feature","properties":{"ID":173,"Name":"Dr. B R Ambedkar Station, Vidhana Soudha","Category":"B"},"geometry":{"type":"Point","coordinates":[77.5916667,12.9787345]}},{"type":"Feature","properties":{"ID":174,"Name":"Deepanjali Nagar","Category":"B"},"geometry":{"type":"Point","coordinates":[77.5370399,12.9520466]}},{"type":"Feature","properties":{"ID":175,"Name":"Mysore Road","Category":"B"},"geometry":{"type":"Point","coordinates":[77.5300896,12.9466619]}},{"type":"Feature","properties":{"ID":176,"Name":"South End Circle","Category":"B"},"geometry":{"type":"Point","coordinates":[77.5800772,12.938262]}},{"type":"Feature","properties":{"ID":177,"Name":"Yeshwantpura","Category":"B"},"geometry":{"type":"Point","coordinates":[77.549748,13.0233685]}},{"type":"Feature","properties":{"ID":178,"Name":"Baiyyappanahalli","Category":"B"},"geometry":{"type":"Point","coordinates":[77.652392,12.9906745]}},{"type":"Feature","properties":{"ID":179,"Name":"Goraguntepalya","Category":"B"},"geometry":{"type":"Point","coordinates":[77.540912,13.0284398]}},{"type":"Feature","properties":{"ID":180,"Name":"Yelachenahalli","Category":"B"},"geometry":{"type":"Point","coordinates":[77.57014,12.8960361]}},{"type":"Feature","properties":{"ID":181,"Name":"Swami Vivekananda Road","Category":"B"},"geometry":{"type":"Point","coordinates":[77.6449072,12.9859128]}},{"type":"Feature","properties":{"ID":182,"Name":"Mahatma Gandhi Road","Category":"B"},"geometry":{"type":"Point","coordinates":[77.6067815,12.9755017]}},{"type":"Feature","properties":{"ID":183,"Name":"Indiranagar","Category":"B"},"geometry":{"type":"Point","coordinates":[77.6386592,12.9783079]}},{"type":"Feature","properties":{"ID":184,"Name":"Banashankari","Category":"B"},"geometry":{"type":"Point","coordinates":[77.5736205,12.9152186]}},{"type":"Feature","properties":{"ID":185,"Name":"Sir M Vishweshwariah - Central College","Category":"B"},"geometry":{"type":"Point","coordinates":[77.5842326,12.9745014]}},{"type":"Feature","properties":{"ID":186,"Name":"Lalbagh","Category":"B"},"geometry":{"type":"Point","coordinates":[77.5800377,12.9465345]}},{"type":"Feature","properties":{"ID":187,"Name":"Nagasandra","Category":"B"},"geometry":{"type":"Point","coordinates":[77.5001473,13.0479782]}},{"type":"Feature","properties":{"ID":188,"Name":"Peenya Industry","Category":"B"},"geometry":{"type":"Point","coordinates":[77.525528,13.0363428]}},{"type":"Feature","properties":{"ID":189,"Name":"Dasarahalli","Category":"B"},"geometry":{"type":"Point","coordinates":[77.5125628,13.0432956]}},{"type":"Feature","properties":{"ID":190,"Name":"National College","Category":"B"},"geometry":{"type":"Point","coordinates":[77.5737033,12.950526]}},{"type":"Feature","properties":{"ID":191,"Name":"Krishna Rajendra Market","Category":"B"},"geometry":{"type":"Point","coordinates":[77.5746822,12.9608898]}},{"type":"Feature","properties":{"ID":192,"Name":"Chikkapete","Category":"B"},"geometry":{"type":"Point","coordinates":[77.5745835,12.966924]}},{"type":"Feature","properties":{"ID":193,"Name":"Mantri Square Sampige Road","Category":"B"},"geometry":{"type":"Point","coordinates":[77.5707615,12.9904754]}},{"type":"Feature","properties":{"ID":194,"Name":"Krantivira Sangolli Rayanna Railway Station","Category":"B"},"geometry":{"type":"Point","coordinates":[77.5653792,12.9758581]}},{"type":"Feature","properties":{"ID":195,"Name":"Srirampura","Category":"B"},"geometry":{"type":"Point","coordinates":[77.5632018,12.9965731]}},{"type":"Feature","properties":{"ID":196,"Name":"Attiguppe","Category":"B"},"geometry":{"type":"Point","coordinates":[77.5335932,12.9618581]}},{"type":"Feature","properties":{"ID":197,"Name":"Vijayanagara","Category":"B"},"geometry":{"type":"Point","coordinates":[77.5374285,12.9709391]}},{"type":"Feature","properties":{"ID":198,"Name":"Mahalakshmi","Category":"B"},"geometry":{"type":"Point","coordinates":[77.5487627,13.0080926]}},{"type":"Feature","properties":{"ID":199,"Name":"Sandal Soap Factory","Category":"B"},"geometry":{"type":"Point","coordinates":[77.5540194,13.0147204]}},{"type":"Feature","properties":{"ID":200,"Name":"Rashtriya Vidyalaya Road","Category":"B"},"geometry":{"type":"Point","coordinates":[77.5802892,12.9213328]}},{"type":"Feature","properties":{"ID":201,"Name":"Jaya Prakash Nagar","Category":"B"},"geometry":{"type":"Point","coordinates":[77.5731495,12.9074812]}},{"type":"Feature","properties":{"ID":202,"Name":"Rajajinagar","Category":"B"},"geometry":{"type":"Point","coordinates":[77.5496996,13.0005359]}},{"type":"Feature","properties":{"ID":203,"Name":"Jayanagar","Category":"B"},"geometry":{"type":"Point","coordinates":[77.5801653,12.9295069]}},{"type":"Feature","properties":{"ID":204,"Name":"Sri Balagangadaranatha Swamy, Hosahalli","Category":"B"},"geometry":{"type":"Point","coordinates":[77.5456204,12.974267]}},{"type":"Feature","properties":{"ID":205,"Name":"Mahakavi Kuvempu Road","Category":"B"},"geometry":{"type":"Point","coordinates":[77.5569042,12.9985682]}},{"type":"Feature","properties":{"ID":206,"Name":"Jalahalli","Category":"B"},"geometry":{"type":"Point","coordinates":[77.5197626,13.0394442]}},{"type":"Feature","properties":{"ID":207,"Name":"Seetharampalya","Category":"B"},"geometry":{"type":"Point","coordinates":[77.7086112,12.9813658]}},{"type":"Feature","properties":{"ID":208,"Name":"Rajarajeshwari Nagar","Category":"B"},"geometry":{"type":"Point","coordinates":[77.5196666,12.9366362]}},{"type":"Feature","properties":{"ID":209,"Name":"Nayandahalli","Category":"B"},"geometry":{"type":"Point","coordinates":[77.525127,12.9416608]}},{"type":"Feature","properties":{"ID":210,"Name":"Magadi Road","Category":"B"},"geometry":{"type":"Point","coordinates":[77.5553564,12.975608]}},{"type":"Feature","properties":{"ID":211,"Name":"Hoodi","Category":"B"},"geometry":{"type":"Point","coordinates":[77.7118928,12.9891627]}},{"type":"Feature","properties":{"ID":212,"Name":"Cubbon Park","Category":"B"},"geometry":{"type":"Point","coordinates":[77.597562,12.9808954]}},{"type":"Feature","properties":{"ID":213,"Name":"Peenya","Category":"B"},"geometry":{"type":"Point","coordinates":[77.5332233,13.0330515]}},{"type":"Feature","properties":{"ID":214,"Name":"Krishnarajapura","Category":"B"},"geometry":{"type":"Point","coordinates":[77.6779075,12.9998836]}},{"type":"Feature","properties":{"ID":215,"Name":"Jayadeva Interchange (u/c)","Category":"B"},"geometry":{"type":"Point","coordinates":[77.5999326,12.9167531]}},{"type":"Feature","properties":{"ID":216,"Name":"Nadaprabhu Kempegowda Station, Majestic (Purple Line)","Category":"B"},"geometry":{"type":"Point","coordinates":[77.5731558,12.9756601]}},{"type":"Feature","properties":{"ID":217,"Name":"Baiyyappanahalli","Category":"B"},"geometry":{"type":"Point","coordinates":[77.6523733,12.9907136]}},{"type":"Feature","properties":{"ID":218,"Name":"Jnana Bharati","Category":"B"},"geometry":{"type":"Point","coordinates":[77.5124016,12.9354476]}},{"type":"Feature","properties":{"ID":219,"Name":"Rajarajeshwari Nagar","Category":"B"},"geometry":{"type":"Point","coordinates":[77.5196587,12.9366736]}},{"type":"Feature","properties":{"ID":220,"Name":"Nayandahalli","Category":"B"},"geometry":{"type":"Point","coordinates":[77.5251045,12.9416831]}},{"type":"Feature","properties":{"ID":221,"Name":"Mysore Road","Category":"B"},"geometry":{"type":"Point","coordinates":[77.5300705,12.9467026]}},{"type":"Feature","properties":{"ID":222,"Name":"Deepanjali Nagar","Category":"B"},"geometry":{"type":"Point","coordinates":[77.5369961,12.9520333]}},{"type":"Feature","properties":{"ID":223,"Name":"Attiguppe","Category":"B"},"geometry":{"type":"Point","coordinates":[77.5335505,12.9618745]}},{"type":"Feature","properties":{"ID":224,"Name":"Vijayanagara","Category":"B"},"geometry":{"type":"Point","coordinates":[77.5373851,12.9709537]}},{"type":"Feature","properties":{"ID":225,"Name":"Sri Balagangadaranatha Swamy, Hosahalli","Category":"B"},"geometry":{"type":"Point","coordinates":[77.5456197,12.9743117]}},{"type":"Feature","properties":{"ID":226,"Name":"Magadi Road","Category":"B"},"geometry":{"type":"Point","coordinates":[77.5553548,12.9756527]}},{"type":"Feature","properties":{"ID":227,"Name":"Krantivira Sangolli Rayanna Railway Station","Category":"B"},"geometry":{"type":"Point","coordinates":[77.5653744,12.9759026]}},{"type":"Feature","properties":{"ID":228,"Name":"Swami Vivekananda Road","Category":"B"},"geometry":{"type":"Point","coordinates":[77.6448902,12.9859543]}},{"type":"Feature","properties":{"ID":229,"Name":"Indiranagar","Category":"B"},"geometry":{"type":"Point","coordinates":[77.638658,12.9783526]}},{"type":"Feature","properties":{"ID":230,"Name":"Halasuru","Category":"B"},"geometry":{"type":"Point","coordinates":[77.626667,12.9765165]}},{"type":"Feature","properties":{"ID":231,"Name":"Trinity","Category":"B"},"geometry":{"type":"Point","coordinates":[77.6170235,12.9730388]}},{"type":"Feature","properties":{"ID":232,"Name":"Mahatma Gandhi Road","Category":"B"},"geometry":{"type":"Point","coordinates":[77.6067924,12.9755451]}},{"type":"Feature","properties":{"ID":233,"Name":"Cubbon Park","Category":"B"},"geometry":{"type":"Point","coordinates":[77.5975758,12.9809794]}},{"type":"Feature","properties":{"ID":234,"Name":"Dr. B R Ambedkar Station, Vidhana Soudha","Category":"B"},"geometry":{"type":"Point","coordinates":[77.59163,12.9787613]}},{"type":"Feature","properties":{"ID":235,"Name":"Nadaprabhu Kempegowda Station, Majestic (Purple Line)","Category":"B"},"geometry":{"type":"Point","coordinates":[77.5726872,12.9757482]}},{"type":"Feature","properties":{"ID":236,"Name":"Sir M Vishweshwariah - Central College","Category":"B"},"geometry":{"type":"Point","coordinates":[77.584209,12.9745398]}},{"type":"Feature","properties":{"ID":237,"Name":"Jayadeva Interchange (u/c)","Category":"B"},"geometry":{"type":"Point","coordinates":[77.5999338,12.9167155]}},{"type":"Feature","properties":{"ID":238,"Name":"Silk Institute","Category":"B"},"geometry":{"type":"Point","coordinates":[77.5299532,12.8616662]}},{"type":"Feature","properties":{"ID":239,"Name":"Thalaghattapura","Category":"B"},"geometry":{"type":"Point","coordinates":[77.5383625,12.8714243]}},{"type":"Feature","properties":{"ID":240,"Name":"Vajarahalli","Category":"B"},"geometry":{"type":"Point","coordinates":[77.544745,12.8775389]}},{"type":"Feature","properties":{"ID":241,"Name":"Yelachenahalli","Category":"B"},"geometry":{"type":"Point","coordinates":[77.5700982,12.8960662]}},{"type":"Feature","properties":{"ID":242,"Name":"Jaya Prakash Nagar","Category":"B"},"geometry":{"type":"Point","coordinates":[77.5731076,12.907476]}},{"type":"Feature","properties":{"ID":243,"Name":"Banashankari","Category":"B"},"geometry":{"type":"Point","coordinates":[77.5735786,12.9152242]}},{"type":"Feature","properties":{"ID":244,"Name":"Rashtriya Vidyalaya Road","Category":"B"},"geometry":{"type":"Point","coordinates":[77.5802479,12.9213321]}},{"type":"Feature","properties":{"ID":245,"Name":"Nadaprabhu Kempegowda Station, Majestic (Green Line)","Category":"B"},"geometry":{"type":"Point","coordinates":[77.5728467,12.9754705]}},{"type":"Feature","properties":{"ID":246,"Name":"Chikkapete","Category":"B"},"geometry":{"type":"Point","coordinates":[77.5745412,12.9669249]}},{"type":"Feature","properties":{"ID":247,"Name":"Jayanagar","Category":"B"},"geometry":{"type":"Point","coordinates":[77.580123,12.9295065]}},{"type":"Feature","properties":{"ID":248,"Name":"South End Circle","Category":"B"},"geometry":{"type":"Point","coordinates":[77.5800349,12.9382617]}},{"type":"Feature","properties":{"ID":249,"Name":"Lalbagh","Category":"B"},"geometry":{"type":"Point","coordinates":[77.5799954,12.9465339]}},{"type":"Feature","properties":{"ID":250,"Name":"Krishna Rajendra Market","Category":"B"},"geometry":{"type":"Point","coordinates":[77.5746404,12.960896]}},{"type":"Feature","properties":{"ID":251,"Name":"National College","Category":"B"},"geometry":{"type":"Point","coordinates":[77.573661,12.9505255]}},{"type":"Feature","properties":{"ID":252,"Name":"Peenya Industry","Category":"B"},"geometry":{"type":"Point","coordinates":[77.5254867,13.0362716]}},{"type":"Feature","properties":{"ID":253,"Name":"Mantri Square Sampige Road","Category":"B"},"geometry":{"type":"Point","coordinates":[77.5706929,12.9904282]}},{"type":"Feature","properties":{"ID":254,"Name":"Srirampura","Category":"B"},"geometry":{"type":"Point","coordinates":[77.5631899,12.9964921]}},{"type":"Feature","properties":{"ID":255,"Name":"Peenya","Category":"B"},"geometry":{"type":"Point","coordinates":[77.5331801,13.0329814]}},{"type":"Feature","properties":{"ID":256,"Name":"Goraguntepalya","Category":"B"},"geometry":{"type":"Point","coordinates":[77.5408704,13.0283687]}},{"type":"Feature","properties":{"ID":257,"Name":"Yeshwantpura","Category":"B"},"geometry":{"type":"Point","coordinates":[77.5497052,13.0232981]}},{"type":"Feature","properties":{"ID":258,"Name":"Sandal Soap Factory","Category":"B"},"geometry":{"type":"Point","coordinates":[77.5539355,13.014716]}},{"type":"Feature","properties":{"ID":259,"Name":"Mahalakshmi","Category":"B"},"geometry":{"type":"Point","coordinates":[77.54868,13.008107]}},{"type":"Feature","properties":{"ID":260,"Name":"Mahakavi Kuvempu Road","Category":"B"},"geometry":{"type":"Point","coordinates":[77.5568863,12.9984882]}},{"type":"Feature","properties":{"ID":261,"Name":"Rajajinagar","Category":"B"},"geometry":{"type":"Point","coordinates":[77.5496166,13.0005232]}},{"type":"Feature","properties":{"ID":262,"Name":"Nagasandra","Category":"B"},"geometry":{"type":"Point","coordinates":[77.5001168,13.047903]}},{"type":"Feature","properties":{"ID":263,"Name":"Dasarahalli","Category":"B"},"geometry":{"type":"Point","coordinates":[77.5125345,13.0432196]}},{"type":"Feature","properties":{"ID":264,"Name":"Jalahalli","Category":"B"},"geometry":{"type":"Point","coordinates":[77.5197223,13.0393735]}},{"type":"Feature","properties":{"ID":265,"Name":"Konanakunte Cross","Category":"B"},"geometry":{"type":"Point","coordinates":[77.5627081,12.8889418]}},{"type":"Feature","properties":{"ID":266,"Name":"Doddakallasandra","Category":"B"},"geometry":{"type":"Point","coordinates":[77.552751,12.8846862]}},{"type":"Feature","properties":{"ID":267,"Name":"Vajarahalli","Category":"B"},"geometry":{"type":"Point","coordinates":[77.5448072,12.8775221]}},{"type":"Feature","properties":{"ID":268,"Name":"Thalaghattapura","Category":"B"},"geometry":{"type":"Point","coordinates":[77.538419,12.8713916]}},{"type":"Feature","properties":{"ID":269,"Name":"Silk Institute","Category":"B"},"geometry":{"type":"Point","coordinates":[77.5299083,12.8616919]}},{"type":"Feature","properties":{"ID":270,"Name":"Kengeri Bus Terminal","Category":"B"},"geometry":{"type":"Point","coordinates":[77.4878484,12.914711]}},{"type":"Feature","properties":{"ID":271,"Name":"Kengeri","Category":"B"},"geometry":{"type":"Point","coordinates":[77.4765748,12.9079284]}},{"type":"Feature","properties":{"ID":272,"Name":"Jayadeva Interchange (u/c)","Category":"B"},"geometry":{"type":"Point","coordinates":[77.5998879,12.9167307]}},{"type":"Feature","properties":{"ID":273,"Name":"Kengeri","Category":"B"},"geometry":{"type":"Point","coordinates":[77.4765871,12.9078971]}},{"type":"Feature","properties":{"ID":274,"Name":"Pattanagere","Category":"B"},"geometry":{"type":"Point","coordinates":[77.4983713,12.9242399]}},{"type":"Feature","properties":{"ID":275,"Name":"Pattanagere","Category":"B"},"geometry":{"type":"Point","coordinates":[77.4983378,12.9242632]}},{"type":"Feature","properties":{"ID":276,"Name":"Jnana Bharati","Category":"B"},"geometry":{"type":"Point","coordinates":[77.5124194,12.935405]}},{"type":"Feature","properties":{"ID":277,"Name":"Krishnarajapura","Category":"B"},"geometry":{"type":"Point","coordinates":[77.6779104,12.9999402]}},{"type":"Feature","properties":{"ID":278,"Name":"Whitefield (Kadugodi)","Category":"B"},"geometry":{"type":"Point","coordinates":[77.7579293,12.995975]}},{"type":"Feature","properties":{"ID":279,"Name":"Hopefarm Channasandra","Category":"B"},"geometry":{"type":"Point","coordinates":[77.7539652,12.9875337]}},{"type":"Feature","properties":{"ID":280,"Name":"Kadugodi Tree Park","Category":"B"},"geometry":{"type":"Point","coordinates":[77.7464181,12.9858509]}},{"type":"Feature","properties":{"ID":281,"Name":"Pattandur Agrahara","Category":"B"},"geometry":{"type":"Point","coordinates":[77.7373105,12.9875935]}},{"type":"Feature","properties":{"ID":282,"Name":"Sathya Sai Hospital","Category":"B"},"geometry":{"type":"Point","coordinates":[77.7275008,12.9807466]}},{"type":"Feature","properties":{"ID":283,"Name":"Sathya Sai Hospital","Category":"B"},"geometry":{"type":"Point","coordinates":[77.7276627,12.9817149]}},{"type":"Feature","properties":{"ID":284,"Name":"Nallurahalli","Category":"B"},"geometry":{"type":"Point","coordinates":[77.7253457,12.9765754]}},{"type":"Feature","properties":{"ID":285,"Name":"Kundalahalli","Category":"B"},"geometry":{"type":"Point","coordinates":[77.7151264,12.9776292]}},{"type":"Feature","properties":{"ID":286,"Name":"Hoodi","Category":"B"},"geometry":{"type":"Point","coordinates":[77.7109265,12.9885448]}},{"type":"Feature","properties":{"ID":287,"Name":"Garudacharpalya","Category":"B"},"geometry":{"type":"Point","coordinates":[77.7041125,12.9933397]}},{"type":"Feature","properties":{"ID":288,"Name":"Singayyanapalya","Category":"B"},"geometry":{"type":"Point","coordinates":[77.6930464,12.9964536]}},{"type":"Feature","properties":{"ID":289,"Name":"Seetharampalya","Category":"B"},"geometry":{"type":"Point","coordinates":[77.7088952,12.980531]}}]}