{"type":"FeatureCollection","features":[{"type":"Feature","properties":{"ID":1,"Name":"Iskcon","Category":"A"},"geometry":{"type":"Point","coordinates":[77.5510424,13.0099295]}},{"type":"Feature","properties":{"ID":2,"Name":"KC General","Category":"A"},"geometry":{"type":"Point","coordinates":[77.569264,12.996302]}},{"type":"Feature","properties":{"ID":3,"Name":"Phoenix Market city","Category":"A"},"geometry":{"type":"Point","coordinates":[77.696144,12.995638]}},{"type":"Feature","properties":{"ID":4,"Name":"Jayanagar","Category":"A"},"geometry":{"type":"Point","coordinates":[77.582962,12.92797]}},{"type":"Feature","properties":{"ID":5,"Name":"World Trade Centre","Category":"A"},"geometry":{"type":"Point","coordinates":[77.556154,13.011948]}},{"type":"Feature","properties":{"ID":7,"Name":"Chinnaswamy Stadium Brookfield","Category":"A"},"geometry":{"type":"Point","coordinates":[77.598836,12.977755]}},{"type":"Feature","properties":{"ID":8,"Name":"Indiranagar","Category":"A"},"geometry":{"type":"Point","coordinates":[77.643445,12.976348]}},{"type":"Feature","properties":{"ID":9,"Name":"Oberoi","Category":"A"},"geometry":{"type":"Point","coordinates":[77.618163,12.973412]}},{"type":"Feature","properties":{"ID":10,"Name":"Hebbal","Category":"A"},"geometry":{"type":"Point","coordinates":[77.597106,13.034926]}},{"type":"Feature","properties":{"ID":11,"Name":"Aachar Residency","Category":"A"},"geometry":{"type":"Point","coordinates":[77.577953,13.014147]}},{"type":"Feature","properties":{"ID":12,"Name":"KR Marjet","Category":"A"},"geometry":{"type":"Point","coordinates":[77.57692,12.965617]}},{"type":"Feature","properties":{"ID":13,"Name":"Prestige Misty Waters","Category":"A"},"geometry":{"type":"Point","coordinates":[77.601969,13.046336]}},{"type":"Feature","properties":{"ID":14,"Name":"83 1 J Cross","Category":"A"},"geometry":{"type":"Point","coordinates":[77.534173,12.989753]}},{"type":"Feature","properties":{"ID":15,"Name":"166 1 J Cross","Category":"A"},"geometry":{"type":"Point","coordinates":[77.53493,12.988977]}},{"type":"Feature","properties":{"ID":17,"Name":"Prestige Falcon","Category":"A"},"geometry":{"type":"Point","coordinates":[77.56343,12.884725]}},{"type":"Feature","properties":{"ID":19,"Name":"Koramangala","Category":"A"},"geometry":{"type":"Point","coordinates":[77.623006,12.937277]}},{"type":"Feature","properties":{"ID":20,"Name":"Silk board","Category":"A"},"geometry":{"type":"Point","coordinates":[77.621199,12.916508]}},{"type":"Feature","properties":{"ID":21,"Name":"Sadashivanagar","Category":"A"},"geometry":{"type":"Point","coordinates":[77.580828,13.007321]}},{"type":"Feature","properties":{"ID":22,"Name":"Manyata","Category":"A"},"geometry":{"type":"Point","coordinates":[77.620982,13.043513]}},{"type":"Feature","properties":{"ID":23,"Name":"Kengeri","Category":"A"},"geometry":{"type":"Point","coordinates":[77.483105,12.899967]}},{"type":"Feature","properties":{"ID":24,"Name":"Lalbagh","Category":"A"},"geometry":{"type":"Point","coordinates":[77.585115,12.950684]}},{"type":"Feature","properties":{"ID":25,"Name":"Brookefield","Category":"A"},"geometry":{"type":"Point","coordinates":[77.714679,12.959896]}},{"type":"Feature","properties":{"ID":26,"Name":"Bangalore City Junction","Category":"A"},"geometry":{"type":"Point","coordinates":[77.569802,12.978115]}},{"type":"Feature","properties":{"ID":27,"Name":"Kempegowda International Airport Terminal 1","Category":"A"},"geometry":{"type":"Point","coordinates":[77.707531,13.198038]}},{"type":"Feature","properties":{"ID":28,"Name":"Christ University","Category":"A"},"geometry":{"type":"Point","coordinates":[77.606129,12.936218]}},{"type":"Feature","properties":{"ID":29,"Name":"Indian Institute Management, Bengaluru","Category":"A"},"geometry":{"type":"Point","coordinates":[77.602172,12.895733]}},{"type":"Feature","properties":{"ID":30,"Name":"Salarpuria Sattva","Category":"A"},"geometry":{"type":"Point","coordinates":[77.703866,13.01912]}},{"type":"Feature","properties":{"ID":31,"Name":"Koramangala 7th Block","Category":"A"},"geometry":{"type":"Point","coordinates":[77.61757,12.937309]}},{"type":"Feature","properties":{"ID":32,"Name":"Rangashankara","Category":"A"},"geometry":{"type":"Point","coordinates":[77.587048,12.911522]}},{"type":"Feature","properties":{"ID":34,"Name":"VV Puram","Category":"A"},"geometry":{"type":"Point","coordinates":[77.577757,12.950902]}},{"type":"Feature","properties":{"ID":35,"Name":"Madivala Lake","Category":"A"},"geometry":{"type":"Point","coordinates":[77.61255641,12.90435911]}},{"type":"Feature","properties":{"ID":36,"Name":"BGS Global Hospitals","Category":"A"},"geometry":{"type":"Point","coordinates":[77.49749912,12.90304553]}},{"type":"Feature","properties":{"ID":37,"Name":"Kidwai Memorial Institute of Oncology","Category":"A"},"geometry":{"type":"Point","coordinates":[77.59817367,12.93638485]}},{"type":"Feature","properties":{"ID":38,"Name":"Thyagarajanagar","Category":"A"},"geometry":{"type":"Point","coordinates":[77.56847228,12.93263896]}},{"type":"Feature","properties":{"ID":39,"Name":"Domlur","Category":"A"},"geometry":{"type":"Point","coordinates":[77.63808814,12.95955871]}},{"type":"Feature","properties":{"ID":40,"Name":"Attiguppe","Category":"A"},"geometry":{"type":"Point","coordinates":[77.54001516,12.96491612]}},{"type":"Feature","properties":{"ID":41,"Name":"Hennur","Category":"A"},"geometry":{"type":"Point","coordinates":[77.6287878,13.0269523]}},{"type":"Feature","properties":{"ID":42,"Name":"Dr. Ambedkar Medical College Hospital","Category":"A"},"geometry":{"type":"Point","coordinates":[77.61310685,13.02182916]}},{"type":"Feature","properties":{"ID":43,"Name":"Bangalore University","Category":"A"},"geometry":{"type":"Point","coordinates":[77.51387167,12.94103989]}},{"type":"Feature","properties":{"ID":44,"Name":"Peenya Industrial Area","Category":"A"},"geometry":{"type":"Point","coordinates":[77.52738465,13.03086351]}},{"type":"Feature","properties":{"ID":45,"Name":"Mathikere","Category":"A"},"geometry":{"type":"Point","coordinates":[77.5583932,13.03285822]}},{"type":"Feature","properties":{"ID":46,"Name":"Indian Institute of Science","Category":"A"},"geometry":{"type":"Point","coordinates":[77.56724933,13.02131564]}},{"type":"Feature","properties":{"ID":47,"Name":"Nandini Layout","Category":"A"},"geometry":{"type":"Point","coordinates":[77.53627711,13.01222348]}},{"type":"Feature","properties":{"ID":48,"Name":"Jindal Naturecare Institute","Category":"A"},"geometry":{"type":"Point","coordinates":[77.48349427,13.05063859]}},{"type":"Feature","properties":{"ID":49,"Name":"Doddabidirakallu","Category":"A"},"geometry":{"type":"Point","coordinates":[77.49245181,13.03435294]}},{"type":"Feature","properties":{"ID":50,"Name":"Kendriya Vidyalaya NAL","Category":"A"},"geometry":{"type":"Point","coordinates":[77.65550039,12.96569614]}},{"type":"Feature","properties":{"ID":51,"Name":"Varthur","Category":"A"},"geometry":{"type":"Point","coordinates":[77.74713935,12.93929389]}},{"type":"Feature","properties":{"ID":52,"Name":"Begur Fort","Category":"A"},"geometry":{"type":"Point","coordinates":[77.62269638,12.87094776]}},{"type":"Feature","properties":{"ID":53,"Name":"Jayadeva","Category":"A"},"geometry":{"type":"Point","coordinates":[77.5822929,12.86350841]}},{"type":"Feature","properties":{"ID":54,"Name":"ISRO Layout","Category":"A"},"geometry":{"type":"Point","coordinates":[77.55689665,12.89894354]}},{"type":"Feature","properties":{"ID":55,"Name":"Tamarind","Category":"A"},"geometry":{"type":"Point","coordinates":[77.64759689,13.01273954]}},{"type":"Feature","properties":{"ID":56,"Name":"Cox Town","Category":"A"},"geometry":{"type":"Point","coordinates":[77.62002364,12.99658735]}},{"type":"Feature","properties":{"ID":57,"Name":"Banashankari","Category":"A"},"geometry":{"type":"Point","coordinates":[77.55046529,12.94198518]}},{"type":"Feature","properties":{"ID":58,"Name":"Sunkadakatte","Category":"A"},"geometry":{"type":"Point","coordinates":[77.50475587,12.99546763]}},{"type":"Feature","properties":{"ID":59,"Name":"Ullal","Category":"A"},"geometry":{"type":"Point","coordinates":[77.47662537,12.9600372]}},{"type":"Feature","properties":{"ID":60,"Name":"Cubbon Park","Category":"A"},"geometry":{"type":"Point","coordinates":[77.59253892,12.9743645]}},{"type":"Feature","properties":{"ID":61,"Name":"Bengaluru Palace","Category":"A"},"geometry":{"type":"Point","coordinates":[77.59204685,12.99857295]}},{"type":"Feature","properties":{"ID":62,"Name":"Turahalli","Category":"A"},"geometry":{"type":"Point","coordinates":[77.52730718,12.88766983]}},{"type":"Feature","properties":{"ID":18,"Name":"Nagarabhavi","Category":"A"},"geometry":{"type":"Point","coordinates":[77.51469154,12.96712228]}},{"type":"Feature","properties":{"ID":63,"Name":"Ozone Evergreen","Category":"A"},"geometry":{"type":"Point","coordinates":[77.66327982,12.90897359]}},{"type":"Feature","properties":{"ID":64,"Name":"Fortis Hospitals","Category":"A"},"geometry":{"type":"Point","coordinates":[77.55483316,12.98812758]}},{"type":"Feature","properties":{"ID":65,"Name":"Mantri Mall","Category":"A"},"geometry":{"type":"Point","coordinates":[77.57077478,12.99134812]}},{"type":"Feature","properties":{"ID":66,"Name":"Yelahanka","Category":"A"},"geometry":{"type":"Point","coordinates":[77.5858217,13.09957198]}},{"type":"Feature","properties":{"ID":67,"Name":"Chikkabanavara","Category":"A"},"geometry":{"type":"Point","coordinates":[77.5026577,13.07890927]}},{"type":"Feature","properties":{"ID":68,"Name":"Nelamangala","Category":"A"},"geometry":{"type":"Point","coordinates":[77.39622689,13.09259629]}},{"type":"Feature","properties":{"ID":69,"Name":"National Centre for Biological Sciences","Category":"A"},"geometry":{"type":"Point","coordinates":[77.57916067,13.07262349]}},{"type":"Feature","properties":{"ID":70,"Name":"Planetarium","Category":"A"},"geometry":{"type":"Point","coordinates":[77.58990438,12.98464307]}},{"type":"Feature","properties":{"ID":33,"Name":"Baiyappanahalli","Category":"A"},"geometry":{"type":"Point","coordinates":[77.65258801,12.99652273]}},{"type":"Feature","properties":{"ID":71,"Name":"Rajarajeshwarinagar","Category":"A"},"geometry":{"type":"Point","coordinates":[77.52499813,12.92935443]}},{"type":"Feature","properties":{"ID":72,"Name":"Saint Philomena's College of Nursing","Category":"A"},"geometry":{"type":"Point","coordinates":[77.61136353,12.96446959]}},{"type":"Feature","properties":{"ID":73,"Name":"Sree Kanteerava Stadium","Category":"A"},"geometry":{"type":"Point","coordinates":[77.59308734,12.96916335]}},{"type":"Feature","properties":{"ID":74,"Name":"Visvesvaraya Industrial and Technological Museum","Category":"A"},"geometry":{"type":"Point","coordinates":[77.59623417,12.97538006]}},{"type":"Feature","properties":{"ID":75,"Name":"St Joseph's University College","Category":"A"},"geometry":{"type":"Point","coordinates":[77.60415488,12.97078175]}},{"type":"Feature","properties":{"ID":76,"Name":"The Church of Jesus Christ of Latterday Saints","Category":"A"},"geometry":{"type":"Point","coordinates":[77.60369562,12.96690634]}},{"type":"Feature","properties":{"ID":77,"Name":"Chancery Pavilion","Category":"A"},"geometry":{"type":"Point","coordinates":[77.59870516,12.96590103]}},{"type":"Feature","properties":{"ID":78,"Name":"Saint Martha's Hospital","Category":"A"},"geometry":{"type":"Point","coordinates":[77.58587837,12.97074279]}},{"type":"Feature","properties":{"ID":79,"Name":"Bangalore Fort","Category":"A"},"geometry":{"type":"Point","coordinates":[77.57585942,12.96297367]}},{"type":"Feature","properties":{"ID":80,"Name":"Chamarajapet","Category":"A"},"geometry":{"type":"Point","coordinates":[77.56440125,12.95795551]}},{"type":"Feature","properties":{"ID":81,"Name":"Sri Gavigangadhareshwara Swamy Temple","Category":"A"},"geometry":{"type":"Point","coordinates":[77.56295888,12.9479399]}},{"type":"Feature","properties":{"ID":82,"Name":"Ramaanjaneya Temple","Category":"A"},"geometry":{"type":"Point","coordinates":[77.56316628,12.94472081]}},{"type":"Feature","properties":{"ID":83,"Name":"Sri Aurobindo Memorial School","Category":"A"},"geometry":{"type":"Point","coordinates":[77.56845313,12.9254268]}},{"type":"Feature","properties":{"ID":84,"Name":"National College","Category":"A"},"geometry":{"type":"Point","coordinates":[77.57896619,12.92579047]}},{"type":"Feature","properties":{"ID":85,"Name":"ITI Cricket Ground","Category":"A"},"geometry":{"type":"Point","coordinates":[77.68785518,13.00847219]}},{"type":"Feature","properties":{"ID":86,"Name":"Whitefield","Category":"A"},"geometry":{"type":"Point","coordinates":[77.74989064,12.97187741]}},{"type":"Feature","properties":{"ID":87,"Name":"GE Global Research","Category":"A"},"geometry":{"type":"Point","coordinates":[77.7245382,12.9734498]}},{"type":"Feature","properties":{"ID":88,"Name":"Bellandur","Category":"A"},"geometry":{"type":"Point","coordinates":[77.67649866,12.93045474]}},{"type":"Feature","properties":{"ID":89,"Name":"Karnataka Chitrakala Parishath","Category":"A"},"geometry":{"type":"Point","coordinates":[77.58105973,12.98958101]}},{"type":"Feature","properties":{"ID":90,"Name":"Bangalore Golf Course","Category":"A"},"geometry":{"type":"Point","coordinates":[77.58686455,12.98789407]}},{"type":"Feature","properties":{"ID":91,"Name":"National Gallery of Modern Art","Category":"A"},"geometry":{"type":"Point","coordinates":[77.58806792,12.98946308]}},{"type":"Feature","properties":{"ID":92,"Name":"Alliance Francaise","Category":"A"},"geometry":{"type":"Point","coordinates":[77.59678036,12.99140342]}},{"type":"Feature","properties":{"ID":93,"Name":"Ambedkar Bhavan","Category":"A"},"geometry":{"type":"Point","coordinates":[77.59545738,12.99246913]}},{"type":"Feature","properties":{"ID":94,"Name":"Mount Carmel College","Category":"A"},"geometry":{"type":"Point","coordinates":[77.58771822,12.99316222]}},{"type":"Feature","properties":{"ID":95,"Name":"National Tuberculosis Institute","Category":"A"},"geometry":{"type":"Point","coordinates":[77.58327096,13.00125665]}},{"type":"Feature","properties":{"ID":96,"Name":"Kavalbyrasandra","Category":"A"},"geometry":{"type":"Point","coordinates":[77.60510187,13.01658658]}},{"type":"Feature","properties":{"ID":97,"Name":"Bhoopasandra","Category":"A"},"geometry":{"type":"Point","coordinates":[77.57799417,13.04164353]}},{"type":"Feature","properties":{"ID":98,"Name":"Indian Space Research Organisation Vijinapura","Category":"A"},"geometry":{"type":"Point","coordinates":[77.57153559,13.03586044]}},{"type":"Feature","properties":{"ID":99,"Name":"RMV Club","Category":"A"},"geometry":{"type":"Point","coordinates":[77.56946096,13.03802784]}},{"type":"Feature","properties":{"ID":100,"Name":"Jayaprakash Narayan Park","Category":"A"},"geometry":{"type":"Point","coordinates":[77.55106336,13.03497006]}},{"type":"Feature","properties":{"ID":101,"Name":"Koramangala Indoor Stadium","Category":"A"},"geometry":{"type":"Point","coordinates":[77.62261833,12.94354398]}},{"type":"Feature","properties":{"ID":102,"Name":"Mallathahalli Lake","Category":"A"},"geometry":{"type":"Point","coordinates":[77.49650545,12.96569198]}},{"type":"Feature","properties":{"ID":103,"Name":"Ulsoor Lake","Category":"A"},"geometry":{"type":"Point","coordinates":[77.62215304,12.98499048]}},{"type":"Feature","properties":{"ID":104,"Name":"Frazer Town","Category":"A"},"geometry":{"type":"Point","coordinates":[77.61313925,12.99704329]}},{"type":"Feature","properties":{"ID":105,"Name":"JC Nagar","Category":"A"},"geometry":{"type":"Point","coordinates":[77.59392217,13.01046899]}},{"type":"Feature","properties":{"ID":106,"Name":"Yeshwanthpur","Category":"A"},"geometry":{"type":"Point","coordinates":[77.55253894,13.02364609]}},{"type":"Feature","properties":{"ID":107,"Name":"Ullas Theatre","Category":"A"},"geometry":{"type":"Point","coordinates":[77.55146747,13.01994612]}},{"type":"Feature","properties":{"ID":108,"Name":"Laggere","Category":"A"},"geometry":{"type":"Point","coordinates":[77.52173432,13.01055212]}},{"type":"Feature","properties":{"ID":109,"Name":"Metro Cash and Carry","Category":"A"},"geometry":{"type":"Point","coordinates":[77.56132122,12.96544056]}},{"type":"Feature","properties":{"ID":110,"Name":"DRDO Residential","Category":"A"},"geometry":{"type":"Point","coordinates":[77.66256213,12.98803125]}},{"type":"Feature","properties":{"ID":111,"Name":"Kaggadasapura","Category":"A"},"geometry":{"type":"Point","coordinates":[77.68639224,12.98612517]}},{"type":"Feature","properties":{"ID":112,"Name":"Bowring and Lady Curzon Hospitals","Category":"A"},"geometry":{"type":"Point","coordinates":[77.60451378,12.9834428]}},{"type":"Feature","properties":{"ID":113,"Name":"Racecourse","Category":"A"},"geometry":{"type":"Point","coordinates":[77.58504961,12.98146985]}},{"type":"Feature","properties":{"ID":114,"Name":"Taj West End","Category":"A"},"geometry":{"type":"Point","coordinates":[77.5848384,12.98471638]}},{"type":"Feature","properties":{"ID":115,"Name":"Prashanth Nagar","Category":"A"},"geometry":{"type":"Point","coordinates":[77.53096634,12.97734063]}},{"type":"Feature","properties":{"ID":120,"Name":"Hampi Nagar","Category":"A"},"geometry":{"type":"Point","coordinates":[77.53637659,12.95791091]}},{"type":"Feature","properties":{"ID":116,"Name":"Anjanapura","Category":"A"},"geometry":{"type":"Point","coordinates":[77.55586879,12.86177108]}},{"type":"Feature","properties":{"ID":117,"Name":"Sadaran Bakers","Category":"A"},"geometry":{"type":"Point","coordinates":[77.48624406,12.92926536]}},{"type":"Feature","properties":{"ID":118,"Name":"Bhuvaneshwari Nagar","Category":"A"},"geometry":{"type":"Point","coordinates":[77.49048276,12.94496448]}},{"type":"Feature","properties":{"ID":119,"Name":"NCERT","Category":"A"},"geometry":{"type":"Point","coordinates":[77.5437418,12.92965674]}},{"type":"Feature","properties":{"ID":121,"Name":"Ittamadu","Category":"A"},"geometry":{"type":"Point","coordinates":[77.5456056,12.92331539]}},{"type":"Feature","properties":{"ID":122,"Name":"Chikkalasandra","Category":"A"},"geometry":{"type":"Point","coordinates":[77.54766098,12.91243577]}},{"type":"Feature","properties":{"ID":123,"Name":"Padmanabhanagar","Category":"A"},"geometry":{"type":"Point","coordinates":[77.5576399,12.9182846]}},{"type":"Feature","properties":{"ID":124,"Name":"Dayanand Sagar Institutions","Category":"A"},"geometry":{"type":"Point","coordinates":[77.56619574,12.90833138]}},{"type":"Feature","properties":{"ID":125,"Name":"Sarakki Kere","Category":"A"},"geometry":{"type":"Point","coordinates":[77.57986829,12.89735561]}},{"type":"Feature","properties":{"ID":126,"Name":"Hulimavu","Category":"A"},"geometry":{"type":"Point","coordinates":[77.60156129,12.87005195]}},{"type":"Feature","properties":{"ID":127,"Name":"Green Orchard Apartments","Category":"A"},"geometry":{"type":"Point","coordinates":[77.60992232,12.88471989]}},{"type":"Feature","properties":{"ID":128,"Name":"Purva Westend","Category":"A"},"geometry":{"type":"Point","coordinates":[77.63860724,12.88979942]}},{"type":"Feature","properties":{"ID":129,"Name":"Kudlu","Category":"A"},"geometry":{"type":"Point","coordinates":[77.65458871,12.8889248]}},{"type":"Feature","properties":{"ID":130,"Name":"Shivapura","Category":"A"},"geometry":{"type":"Point","coordinates":[77.50639418,13.02579839]}},{"type":"Feature","properties":{"ID":131,"Name":"Kalyan Nagar","Category":"A"},"geometry":{"type":"Point","coordinates":[77.63725368,13.02418975]}},{"type":"Feature","properties":{"ID":132,"Name":"Kushal Nagar","Category":"A"},"geometry":{"type":"Point","coordinates":[77.61804808,13.01607533]}},{"type":"Feature","properties":{"ID":133,"Name":"Banaswadi","Category":"A"},"geometry":{"type":"Point","coordinates":[77.62897321,13.00879103]}},{"type":"Feature","properties":{"ID":134,"Name":"Commercial Street","Category":"A"},"geometry":{"type":"Point","coordinates":[77.60859236,12.98255317]}},{"type":"Feature","properties":{"ID":135,"Name":"ASC Golf Course","Category":"A"},"geometry":{"type":"Point","coordinates":[77.63245846,12.95066869]}},{"type":"Feature","properties":{"ID":136,"Name":"Sri Jayadeva Institute of Cardiology","Category":"A"},"geometry":{"type":"Point","coordinates":[77.59971089,12.91860027]}},{"type":"Feature","properties":{"ID":137,"Name":"Wilson Garden","Category":"A"},"geometry":{"type":"Point","coordinates":[77.59748997,12.95111541]}},{"type":"Feature","properties":{"ID":138,"Name":"Shoonya Centre for Art","Category":"A"},"geometry":{"type":"Point","coordinates":[77.58747902,12.9596085]}},{"type":"Feature","properties":{"ID":139,"Name":"National College","Category":"A"},"geometry":{"type":"Point","coordinates":[77.57291742,12.94887811]}},{"type":"Feature","properties":{"ID":140,"Name":"Fort High School","Category":"A"},"geometry":{"type":"Point","coordinates":[77.57353042,12.95850657]}},{"type":"Feature","properties":{"ID":141,"Name":"Vidhana Soudha","Category":"A"},"geometry":{"type":"Point","coordinates":[77.59055372,12.97976885]}},{"type":"Feature","properties":{"ID":142,"Name":"Central College Grounds","Category":"A"},"geometry":{"type":"Point","coordinates":[77.5804203,12.97534436]}},{"type":"Feature","properties":{"ID":143,"Name":"Kasturi Bhai Nagar","Category":"A"},"geometry":{"type":"Point","coordinates":[77.54743027,12.95496871]}},{"type":"Feature","properties":{"ID":144,"Name":"MC Modi Eye Hospital","Category":"A"},"geometry":{"type":"Point","coordinates":[77.54600189,12.99810354]}},{"type":"Feature","properties":{"ID":145,"Name":"Chowdiah Memorial Hall","Category":"A"},"geometry":{"type":"Point","coordinates":[77.57550074,13.0067167]}},{"type":"Feature","properties":{"ID":146,"Name":"Sankey Tank","Category":"A"},"geometry":{"type":"Point","coordinates":[77.5740631,13.01214907]}},{"type":"Feature","properties":{"ID":147,"Name":"Bengaluru Santhe","Category":"A"},"geometry":{"type":"Point","coordinates":[77.64707347,12.98693015]}},{"type":"Feature","properties":{"ID":148,"Name":"Big Bazaar","Category":"A"},"geometry":{"type":"Point","coordinates":[77.6582368,12.99134454]}},{"type":"Feature","properties":{"ID":149,"Name":"Malleshpalya","Category":"A"},"geometry":{"type":"Point","coordinates":[77.67560568,12.97764933]}},{"type":"Feature","properties":{"ID":150,"Name":"Krishnarajapuram","Category":"A"},"geometry":{"type":"Point","coordinates":[77.67392318,13.00229093]}},{"type":"Feature","properties":{"ID":151,"Name":"Agara","Category":"A"},"geometry":{"type":"Point","coordinates":[77.64263562,12.92401817]}},{"type":"Feature","properties":{"ID":152,"Name":"HSR Layout","Category":"A"},"geometry":{"type":"Point","coordinates":[77.6405003,12.91107697]}},{"type":"Feature","properties":{"ID":153,"Name":"Hongasandra","Category":"A"},"geometry":{"type":"Point","coordinates":[77.62691003,12.89422299]}},{"type":"Feature","properties":{"ID":154,"Name":"Chikkabegur","Category":"A"},"geometry":{"type":"Point","coordinates":[77.63701029,12.88372964]}},{"type":"Feature","properties":{"ID":155,"Name":"Alankar Plaza","Category":"A"},"geometry":{"type":"Point","coordinates":[77.57659778,12.97407258]}},{"type":"Feature","properties":{"ID":156,"Name":"Goripalya","Category":"A"},"geometry":{"type":"Point","coordinates":[77.55466072,12.96557742]}},{"type":"Feature","properties":{"ID":157,"Name":"Kaveri Layout","Category":"A"},"geometry":{"type":"Point","coordinates":[77.52724846,12.97281616]}},{"type":"Feature","properties":{"ID":158,"Name":"BEML Layout","Category":"A"},"geometry":{"type":"Point","coordinates":[77.52158037,12.90812869]}},{"type":"Feature","properties":{"ID":159,"Name":"Kengeri","Category":"A"},"geometry":{"type":"Point","coordinates":[77.48177026,12.91854797]}},{"type":"Feature","properties":{"ID":160,"Name":"Jalahalli","Category":"A"},"geometry":{"type":"Point","coordinates":[77.54879605,13.04643049]}},{"type":"Feature","properties":{"ID":161,"Name":"Rajajinagar IT Park","Category":"A"},"geometry":{"type":"Point","coordinates":[77.55115065,12.9783294]}},{"type":"Feature","properties":{"ID":162,"Name":"Austin Town","Category":"A"},"geometry":{"type":"Point","coordinates":[77.61940359,12.95673232]}},{"type":"Feature","properties":{"ID":163,"Name":"Madiwala","Category":"A"},"geometry":{"type":"Point","coordinates":[77.61771672,12.92124828]}},{"type":"Feature","properties":{"ID":164,"Name":"Cottonpet","Category":"A"},"geometry":{"type":"Point","coordinates":[77.5670199,12.96556188]}},{"type":"Feature","properties":{"ID":165,"Name":"Lumbini","Category":"A"},"geometry":{"type":"Point","coordinates":[77.6102352,13.0426237]}},{"type":"Feature","properties":{"ID":166,"Name":"Thanisandra","Category":"A"},"geometry":{"type":"Point","coordinates":[77.63483736,13.05547801]}},{"type":"Feature","properties":{"ID":167,"Name":"Horamavu","Category":"A"},"geometry":{"type":"Point","coordinates":[77.6615771,13.02653023]}},{"type":"Feature","properties":{"ID":168,"Name":"Narayana Apartments","Category":"A"},"geometry":{"type":"Point","coordinates":[77.60140333,13.02620983]}},{"type":"Feature","properties":{"ID":169,"Name":"Jayanagara 9th Block,JAYANAGARA 9TH BLOCK,BESIDE HOTEL SRI SAI","Category":"B"},"geometry":{"type":"Point","coordinates":[77.5923589,12.91975658]}},{"type":"Feature","properties":{"ID":170,"Name":"Jayanagara T Block,JAYANAGARA 4TH T BLOCK,BESIDE HDFC BANK","Category":"B"},"geometry":{"type":"Point","coordinates":[77.59338455,12.92268932]}},{"type":"Feature","properties":{"ID":171,"Name":"Jayanagara 18th Main,JAYANAGARA 4TH T BLOCK,OPPOSITE OF LAKSHMI AYURVEDIC CENTER","Category":"B"},"geometry":{"type":"Point","coordinates":[77.58877168,12.92318598]}},{"type":"Feature","properties":{"ID":172,"Name":"Church,JAYANAGARA 4TH T BLOCK,BESIDE POORNIMA CONVENTION","Category":"B"},"geometry":{"type":"Point","coordinates":[77.58760419,12.9279596]}},{"type":"Feature","properties":{"ID":173,"Name":"Jayanagara 4th Block,TTMC","Category":"B"},"geometry":{"type":"Point","coordinates":[77.58420959,12.92848264]}},{"type":"Feature","properties":{"ID":174,"Name":"Jayanagara 3rd Block,JAYANAGARA 3RD BLOCK,OPPOSITE OF UTL TECHNOLOGIS","Category":"B"},"geometry":{"type":"Point","coordinates":[77.58390636,12.93177833]}},{"type":"Feature","properties":{"ID":175,"Name":"Madavan Park,JAYANAGARA 3RD BLOCK,OPPOSITE OF ORIENTAL INSUARENCE","Category":"B"},"geometry":{"type":"Point","coordinates":[77.58392363,12.93610683]}},{"type":"Feature","properties":{"ID":176,"Name":"Southend Circle,BASAVANAGUDI,BESIDE GANDHARVA FAMILY BAR","Category":"B"},"geometry":{"type":"Point","coordinates":[77.57664571,12.93666431]}},{"type":"Feature","properties":{"ID":177,"Name":"Nagasandra Circle,BASAVANAGUDI,BESIDE PROSPER PARK APPARTMENT","Category":"B"},"geometry":{"type":"Point","coordinates":[77.57217014,12.93672057]}},{"type":"Feature","properties":{"ID":178,"Name":"Netakallappa Circle,BASAVANAGUDI,OPPOSITE OF GURU RAGHAVENDRA BANK","Category":"B"},"geometry":{"type":"Point","coordinates":[77.57215225,12.93956243]}},{"type":"Feature","properties":{"ID":179,"Name":"Basavanagudi Police Station,BASAVANAGUDI,BESIDE ACHIEVE SCHOOL OF EDUCATION","Category":"B"},"geometry":{"type":"Point","coordinates":[77.57358,12.94189]}},{"type":"Feature","properties":{"ID":180,"Name":"Gandhi Bazaar,BASAVANAGUDI,BESIDE ASHOKA PLAZA","Category":"B"},"geometry":{"type":"Point","coordinates":[77.57070059,12.94574241]}},{"type":"Feature","properties":{"ID":181,"Name":"Ramakrishna Ashrama,GAVIPURAM EXTENTION,OPPOSITE OF STATE BANK OF INDIA","Category":"B"},"geometry":{"type":"Point","coordinates":[77.56756102,12.94914748]}},{"type":"Feature","properties":{"ID":182,"Name":"Bangalore High School,KEMPE GOWDA NAGARA,IN FRONT OF MORE MEGHA STORE","Category":"B"},"geometry":{"type":"Point","coordinates":[77.5674635,12.95189473]}},{"type":"Feature","properties":{"ID":183,"Name":"Chamarajapet,CHAMARAJA PETE,BESIDE VENKUS & CO. PETROL BUNK","Category":"B"},"geometry":{"type":"Point","coordinates":[77.56829549,12.95719452]}},{"type":"Feature","properties":{"ID":184,"Name":"Makkalakoota","Category":"B"},"geometry":{"type":"Point","coordinates":[77.57402561,12.95850855]}},{"type":"Feature","properties":{"ID":185,"Name":"Krishnarajendra Market","Category":"B"},"geometry":{"type":"Point","coordinates":[77.57527904,12.96161187]}},{"type":"Feature","properties":{"ID":186,"Name":"Veterinary Hospital","Category":"B"},"geometry":{"type":"Point","coordinates":[77.56843,12.96366]}},{"type":"Feature","properties":{"ID":187,"Name":"Goodshed Road Gate,COTTONPET,BESIDE BALAGANGADHARANATHA SWAMYJI FREE HOSTEL SCHOOL","Category":"B"},"geometry":{"type":"Point","coordinates":[77.56800682,12.96811874]}},{"type":"Feature","properties":{"ID":188,"Name":"Majestic,Opposite to City Railway Station","Category":"B"},"geometry":{"type":"Point","coordinates":[77.57074,12.97736]}},{"type":"Feature","properties":{"ID":189,"Name":"Ananda Rao Circle,IN FRONT OF DIRECTOR OF MEDICAL EDUCATION","Category":"B"},"geometry":{"type":"Point","coordinates":[77.57448131,12.9817448]}},{"type":"Feature","properties":{"ID":190,"Name":"Central,SHESHADRI PURAM,OPPOSITE TO HOTEL GREEN ARCHID","Category":"B"},"geometry":{"type":"Point","coordinates":[77.57209867,12.98997477]}},{"type":"Feature","properties":{"ID":191,"Name":"Malleshwaram Circle,MALLESHWARAM,BESIDE R.R.GOLD PALACE","Category":"B"},"geometry":{"type":"Point","coordinates":[77.57130999,12.99789013]}},{"type":"Feature","properties":{"ID":192,"Name":"Malleshwaram 8th Cross,MALLESHWARAM,BESIDE FLOWER MARKET","Category":"B"},"geometry":{"type":"Point","coordinates":[77.57128,12.99966]}},{"type":"Feature","properties":{"ID":193,"Name":"Malleshwaram 15th Cross,MALLESHWARAM,BESIDE SAI MANDIR","Category":"B"},"geometry":{"type":"Point","coordinates":[77.57115472,13.00503071]}},{"type":"Feature","properties":{"ID":194,"Name":"Malleshwaram 18th Cross,MALLESHWARAM,BESIDE KARNATAKA EXAMINATION AUTHORITY","Category":"B"},"geometry":{"type":"Point","coordinates":[77.5710476,13.00908169]}},{"type":"Feature","properties":{"ID":195,"Name":"Tata Institute","Category":"B"},"geometry":{"type":"Point","coordinates":[77.56289701,13.01565694]}},{"type":"Feature","properties":{"ID":196,"Name":"Yeshawanthapura TTMC","Category":"B"},"geometry":{"type":"Point","coordinates":[77.55707759,13.01742075]}},{"type":"Feature","properties":{"ID":197,"Name":"Govardhan Talkies,YESHAWANTHPURA,BESIDE BSNL OFFICE","Category":"B"},"geometry":{"type":"Point","coordinates":[77.5532,13.01856]}},{"type":"Feature","properties":{"ID":198,"Name":"Yeshwanathapura new railway station","Category":"B"},"geometry":{"type":"Point","coordinates":[77.55029,13.02311]}},{"type":"Feature","properties":{"ID":199,"Name":"JPNagara 6th Phase,JP NAGARA 6TH PHASE,OPPOSITE OF THE BIG MARKET","Category":"B"},"geometry":{"type":"Point","coordinates":[77.57761254,12.90649243]}},{"type":"Feature","properties":{"ID":200,"Name":"JP Nagara 15th Cross,JP NAGARA 2ND PHASE,BESIDE CELL CITY","Category":"B"},"geometry":{"type":"Point","coordinates":[77.58562779,12.90713763]}},{"type":"Feature","properties":{"ID":201,"Name":"RVDental College,JP NAGARA 1ST PHASE,BESIDE R.V.COLLEGE","Category":"B"},"geometry":{"type":"Point","coordinates":[77.58567796,12.91115155]}},{"type":"Feature","properties":{"ID":202,"Name":"Marenahalli,JP NAGARA 1ST PHASE,BESIDE 3M CAR CARE","Category":"B"},"geometry":{"type":"Point","coordinates":[77.58569255,12.91533689]}},{"type":"Feature","properties":{"ID":203,"Name":"Jayanagara 5th Block,JAYANAGARA 5TH BLOCK,BESIDE AIR WAAVE","Category":"B"},"geometry":{"type":"Point","coordinates":[77.58354426,12.91744075]}},{"type":"Feature","properties":{"ID":204,"Name":"Telephone Exchange,JAYANAGARA 4TH BLOCK,BESIDE BSNL OFFICE","Category":"B"},"geometry":{"type":"Point","coordinates":[77.58377435,12.92376992]}},{"type":"Feature","properties":{"ID":205,"Name":"BTM Layout,BTM Layout 2nd Stage,Kuvempunagara Bus Stand","Category":"B"},"geometry":{"type":"Point","coordinates":[77.615991,12.916211]}},{"type":"Feature","properties":{"ID":206,"Name":"Udupi Garden 16th Main,BTM Layout,Opp Axis Bank","Category":"B"},"geometry":{"type":"Point","coordinates":[77.608779,12.916535]}},{"type":"Feature","properties":{"ID":207,"Name":"BTM water Tank,BTM LAYOUT,OPPOSITE OF CORPORATION BANK","Category":"B"},"geometry":{"type":"Point","coordinates":[77.60677539,12.9164504]}},{"type":"Feature","properties":{"ID":208,"Name":"MICO Layout,BTM LAYOUT,IN FRONT OF METRIC STREAM","Category":"B"},"geometry":{"type":"Point","coordinates":[77.60434451,12.91647012]}},{"type":"Feature","properties":{"ID":209,"Name":"Jayadeva Hospital,BTM MICO LAYOUT,OPPOSITE OF JAYADEVA HOSPITAL","Category":"B"},"geometry":{"type":"Point","coordinates":[77.59956814,12.91656178]}},{"type":"Feature","properties":{"ID":210,"Name":"East End,Adjacent to Shekhar Hospital","Category":"B"},"geometry":{"type":"Point","coordinates":[77.59505767,12.91751585]}},{"type":"Feature","properties":{"ID":211,"Name":"Jayanagara Pump House,JAYANAGARA 9TH BLOCK,BESIDE SAINT MARY ENTERPRISES","Category":"B"},"geometry":{"type":"Point","coordinates":[77.5969113,12.92179556]}},{"type":"Feature","properties":{"ID":212,"Name":"Carmel Convent Jayanagara,JAYANAGARA 4TH T BLOCK,BESIDE THINK SPAN TECHNOLOGIES","Category":"B"},"geometry":{"type":"Point","coordinates":[77.5970395,12.92663645]}},{"type":"Feature","properties":{"ID":213,"Name":"Jayanagara General Hospital,JAYANAGARA 4TH T BLOCK,RAJEEV GANDHI UNIVERSITY OF HEALTH","Category":"B"},"geometry":{"type":"Point","coordinates":[77.59241365,12.9269372]}},{"type":"Feature","properties":{"ID":214,"Name":"Church,JAYANAGARA 4TH T BLOCK,BESIDE THASHI'S HERBAL","Category":"B"},"geometry":{"type":"Point","coordinates":[77.58973556,12.92690827]}},{"type":"Feature","properties":{"ID":215,"Name":"City Civil Court","Category":"B"},"geometry":{"type":"Point","coordinates":[77.582949,12.973503]}},{"type":"Feature","properties":{"ID":216,"Name":"KR Circle,BESIDE DISTRICT TREASURY OFFICE","Category":"B"},"geometry":{"type":"Point","coordinates":[77.58676727,12.9737513]}},{"type":"Feature","properties":{"ID":217,"Name":"St Marthas Hospital,BESIDE POLICE HEAD QUARTERS","Category":"B"},"geometry":{"type":"Point","coordinates":[77.58725091,12.9698051]}},{"type":"Feature","properties":{"ID":218,"Name":"Corporation","Category":"B"},"geometry":{"type":"Point","coordinates":[77.58816043,12.96459373]}},{"type":"Feature","properties":{"ID":219,"Name":"Poornima Talkies,K.S.GARDEN,BESIDE KAVERI ENTERPRISES","Category":"B"},"geometry":{"type":"Point","coordinates":[77.58828532,12.96087594]}},{"type":"Feature","properties":{"ID":220,"Name":"Shanthi Nagara Bus Station,SHANTHI NAGAR,OPPOSITE TO SHANTHINAGAR TTMC","Category":"B"},"geometry":{"type":"Point","coordinates":[77.59148,12.95446]}},{"type":"Feature","properties":{"ID":221,"Name":"KH Road","Category":"B"},"geometry":{"type":"Point","coordinates":[77.5929835,12.95836876]}},{"type":"Feature","properties":{"ID":222,"Name":"Richmond Circle","Category":"B"},"geometry":{"type":"Point","coordinates":[77.59943909,12.96747258]}},{"type":"Feature","properties":{"ID":223,"Name":"StJosephs College","Category":"B"},"geometry":{"type":"Point","coordinates":[77.60290425,12.96987308]}},{"type":"Feature","properties":{"ID":224,"Name":"Mayohall","Category":"B"},"geometry":{"type":"Point","coordinates":[77.61065209,12.9720408]}},{"type":"Feature","properties":{"ID":225,"Name":"MG Road","Category":"B"},"geometry":{"type":"Point","coordinates":[77.60853047,12.97640668]}},{"type":"Feature","properties":{"ID":226,"Name":"Shivajinagar Bus Station,SHIVAJI NAGARA,BESIDE BMTC BUS STAND","Category":"B"},"geometry":{"type":"Point","coordinates":[77.60323522,12.98303821]}},{"type":"Feature","properties":{"ID":227,"Name":"Indian Express","Category":"B"},"geometry":{"type":"Point","coordinates":[77.59763625,12.98389098]}},{"type":"Feature","properties":{"ID":228,"Name":"Vidhana Soudha","Category":"B"},"geometry":{"type":"Point","coordinates":[77.59253453,12.97891899]}},{"type":"Feature","properties":{"ID":229,"Name":"KR Circle,Post Office Road","Category":"B"},"geometry":{"type":"Point","coordinates":[77.58645,12.97543]}},{"type":"Feature","properties":{"ID":230,"Name":"Vasanthapura,VASANTHAPURA,IN FRONT OF VASANTHA VALLABHARAYA SWAMY TEMPLE","Category":"B"},"geometry":{"type":"Point","coordinates":[77.55224639,12.89542481]}},{"type":"Feature","properties":{"ID":231,"Name":"Yadalam Nagara,YADALAM NAGARA,IN FRONT OF SRI MANIKANTA SOUND SYSTEM","Category":"B"},"geometry":{"type":"Point","coordinates":[77.54851786,12.89616647]}},{"type":"Feature","properties":{"ID":232,"Name":"Subramanyapura Co-operative Society,SUBRAMANYA PURA,BESIDE K.E.B.","Category":"B"},"geometry":{"type":"Point","coordinates":[77.54622012,12.8976035]}},{"type":"Feature","properties":{"ID":233,"Name":"Subramanyapura Police station,SUBRAMANYA PURA,IN FRONT OF YADALAM ADI LAKSHMAMMA SUBBAIAH SHETTY MIDDLE SCHOOL","Category":"B"},"geometry":{"type":"Point","coordinates":[77.54372209,12.89907131]}},{"type":"Feature","properties":{"ID":234,"Name":"Uttarahalli,UTHARAHALLI,IN FRONT OF PUBLIC LIBRARY UTHARAHALLI","Category":"B"},"geometry":{"type":"Point","coordinates":[77.54333016,12.90494962]}},{"type":"Feature","properties":{"ID":235,"Name":"Uttarahalli KR Hospital,UTHARAHALLI,IN FRONT OF I.C.I.C.I.BANK","Category":"B"},"geometry":{"type":"Point","coordinates":[77.54591739,12.90696586]}},{"type":"Feature","properties":{"ID":236,"Name":"Chikkalsandra Canara Bank Colony,CHIKKALASANDRA,BESIDE STATE BANK OF MYSORE","Category":"B"},"geometry":{"type":"Point","coordinates":[77.54925308,12.90921323]}},{"type":"Feature","properties":{"ID":237,"Name":"Chikkalsandra Aralimara,CHIKKALASANDRA,IN FRONT OF C.S.HOSPITAL","Category":"B"},"geometry":{"type":"Point","coordinates":[77.55256828,12.91174606]}},{"type":"Feature","properties":{"ID":238,"Name":"Gowdana palya,TELECOM NAGARA,BESIDE SRI BALAJI C.D.CENTRE","Category":"B"},"geometry":{"type":"Point","coordinates":[77.55555435,12.91153153]}},{"type":"Feature","properties":{"ID":239,"Name":"Prarthana School,PADMANABHA NAGARA","Category":"B"},"geometry":{"type":"Point","coordinates":[77.55854993,12.91201177]}},{"type":"Feature","properties":{"ID":240,"Name":"Kadirenahalli Village,KADIRENAHALLI,IN FRONT OF BELURU IYENGAR BAKERY","Category":"B"},"geometry":{"type":"Point","coordinates":[77.56167289,12.91568658]}},{"type":"Feature","properties":{"ID":241,"Name":"kadirenahalli cross,BANASHANKRI 2ND STAGE TEACHERS COLONY,BESIDE S.A.F00T WEAR","Category":"B"},"geometry":{"type":"Point","coordinates":[77.5668683,12.91388942]}},{"type":"Feature","properties":{"ID":242,"Name":"BANASHANKARI TTMC","Category":"B"},"geometry":{"type":"Point","coordinates":[77.57344712,12.91756291]}},{"type":"Feature","properties":{"ID":243,"Name":"Sangam Circle,JAYANAGARA 8TH BLOCK,BESIDE INDIAN TYRE CENTER","Category":"B"},"geometry":{"type":"Point","coordinates":[77.57737795,12.91762498]}},{"type":"Feature","properties":{"ID":244,"Name":"Jayanagara 40th Cross","Category":"B"},"geometry":{"type":"Point","coordinates":[77.58013,12.91998]}},{"type":"Feature","properties":{"ID":245,"Name":"Central Silk Board","Category":"B"},"geometry":{"type":"Point","coordinates":[77.62423,12.91747]}},{"type":"Feature","properties":{"ID":246,"Name":"Madivala Mosque,KORAMANGALA 2ND BLOCK,IN FROUNT OF UJWAL FAB INDIA","Category":"B"},"geometry":{"type":"Point","coordinates":[77.61897982,12.92506636]}},{"type":"Feature","properties":{"ID":247,"Name":"Koramangala Water Tank,KORAMANGALA RING ROAD,OPPOSITE OF KARNATAKA BANK","Category":"B"},"geometry":{"type":"Point","coordinates":[77.62143315,12.92929368]}},{"type":"Feature","properties":{"ID":248,"Name":"BDA Complex koramangala,KORAMANGALA RING ROAD,OPPOSITE OF BDA COMPLEX","Category":"B"},"geometry":{"type":"Point","coordinates":[77.62212662,12.93089759]}},{"type":"Feature","properties":{"ID":249,"Name":"Canara Bank Koramangala,KORAMANGALA RING ROAD,BESIDE SPICE HOT SHOP","Category":"B"},"geometry":{"type":"Point","coordinates":[77.62401922,12.9350559]}},{"type":"Feature","properties":{"ID":250,"Name":"Jn of 80 and 100 Feet Road,KORAMANGALA RING ROAD,OPPOSITE OF OASIS CENTER & LIFE STYLE","Category":"B"},"geometry":{"type":"Point","coordinates":[77.62802308,12.93812184]}},{"type":"Feature","properties":{"ID":251,"Name":"Sreenivagilu,KORAMANGALA RING ROAD,BESIDE ASC NORTH COMPLEX","Category":"B"},"geometry":{"type":"Point","coordinates":[77.63322506,12.93860606]}},{"type":"Feature","properties":{"ID":252,"Name":"Military Bridge","Category":"B"},"geometry":{"type":"Point","coordinates":[77.63996,12.94598]}},{"type":"Feature","properties":{"ID":253,"Name":"Jn of New Bridge,DOMLURU,BESIDE GINGER COFFEE DAY","Category":"B"},"geometry":{"type":"Point","coordinates":[77.64005648,12.95232573]}},{"type":"Feature","properties":{"ID":254,"Name":"Domlur,DOMLURU,OPPOSITE OF HDFC BANK","Category":"B"},"geometry":{"type":"Point","coordinates":[77.64130589,12.95694172]}},{"type":"Feature","properties":{"ID":255,"Name":"Domlur Bridge","Category":"B"},"geometry":{"type":"Point","coordinates":[77.64141459,12.96055591]}},{"type":"Feature","properties":{"ID":256,"Name":"Doopanahalli,INDIRA NAGARA,BESIDE RELIANCE DIGITAL","Category":"B"},"geometry":{"type":"Point","coordinates":[77.6414804,12.96375093]}},{"type":"Feature","properties":{"ID":257,"Name":"New Horizon School,HAL 2ND STAGE,BESIDE NAC HOME","Category":"B"},"geometry":{"type":"Point","coordinates":[77.64133486,12.96650014]}},{"type":"Feature","properties":{"ID":258,"Name":"HAL 12th Main,HAL 2ND STAGE,BESIDE AXIS BANK","Category":"B"},"geometry":{"type":"Point","coordinates":[77.64121416,12.9694407]}},{"type":"Feature","properties":{"ID":259,"Name":"HAL 6th Main,HAL 2ND STAGE,BESIDE BANK OF BARODA","Category":"B"},"geometry":{"type":"Point","coordinates":[77.64091164,12.97370527]}},{"type":"Feature","properties":{"ID":260,"Name":"Indiranagar Police Station,INDIRA NAGARA,BESIDE POLICE STATION & K.F.C.","Category":"B"},"geometry":{"type":"Point","coordinates":[77.64028028,12.97818943]}},{"type":"Feature","properties":{"ID":261,"Name":"Indiranagar Double Road,INDIRA NAGARA,BESIDE MANYVARA, 13TH CROSS","Category":"B"},"geometry":{"type":"Point","coordinates":[77.6359556,12.97808957]}},{"type":"Feature","properties":{"ID":262,"Name":"Lakshmipura Ulsoor,INDIRA NAGARA,BESIDE BBMP BURIAL GROUND","Category":"B"},"geometry":{"type":"Point","coordinates":[77.63198643,12.97824144]}},{"type":"Feature","properties":{"ID":263,"Name":"Halasur","Category":"B"},"geometry":{"type":"Point","coordinates":[77.628324,12.978018]}},{"type":"Feature","properties":{"ID":264,"Name":"Trinity Circle","Category":"B"},"geometry":{"type":"Point","coordinates":[77.62167153,12.97283787]}},{"type":"Feature","properties":{"ID":265,"Name":"Manipal Centre,M.G.ROAD,BESIDE MILITARY GATE","Category":"B"},"geometry":{"type":"Point","coordinates":[77.61344972,12.97547403]}},{"type":"Feature","properties":{"ID":266,"Name":"maniksha pardeground,M.G.ROAD,BESIDE PARADE GROUND","Category":"B"},"geometry":{"type":"Point","coordinates":[77.60786964,12.97727533]}},{"type":"Feature","properties":{"ID":267,"Name":"Mysore Bank,VASANTHA NAGARA,BESIDE ALL INDIA COUNCIL FOR TECHNICAL","Category":"B"},"geometry":{"type":"Point","coordinates":[77.58199613,12.97466107]}},{"type":"Feature","properties":{"ID":268,"Name":"Maharani College,BESIDE SJP COLLEGE","Category":"B"},"geometry":{"type":"Point","coordinates":[77.58591646,12.97704649]}},{"type":"Feature","properties":{"ID":269,"Name":"Kempegowda Bus Station","Category":"B"},"geometry":{"type":"Point","coordinates":[77.572342,12.978062]}},{"type":"Feature","properties":{"ID":270,"Name":"Peenya 2nd stage,PEENYA 2ND STAGE,IN FRONT OF M.P.P.TEHNOLOGIES PVT LTD","Category":"B"},"geometry":{"type":"Point","coordinates":[77.50672509,13.01076687]}},{"type":"Feature","properties":{"ID":271,"Name":"Rajagopalanagar Rajni Farms,PEENYA INDUSTRIAL AREA 2ND STAGE,IN FRONT OF MANJUNATHA REFRESHMENT","Category":"B"},"geometry":{"type":"Point","coordinates":[77.50892345,13.01397068]}},{"type":"Feature","properties":{"ID":272,"Name":"Peenya 14th Cross,PEENYA INDUSTRIAL AREA 2ND STAGE,OPPOSITE OF SISTEMS MANUFACTURING PVT LTD","Category":"B"},"geometry":{"type":"Point","coordinates":[77.50584603,13.01704123]}},{"type":"Feature","properties":{"ID":273,"Name":"Brundavana Peenya 2nd Stage,PEENYA INDUSTRIAL AREA 2ND STAGE,IN FRONT OF NEW TIMBER INDUSTRY","Category":"B"},"geometry":{"type":"Point","coordinates":[77.50799482,13.020267]}},{"type":"Feature","properties":{"ID":274,"Name":"NTTF,N.T.T.F.CROSS,IN FRONT OF NEW TIMBER INDUSTRY","Category":"B"},"geometry":{"type":"Point","coordinates":[77.51095497,13.02494452]}},{"type":"Feature","properties":{"ID":275,"Name":"Rolling Mill,PEENYA INDUSTRIAL AREA,BESIDE ARVIND MOTORS","Category":"B"},"geometry":{"type":"Point","coordinates":[77.51472006,13.02658224]}},{"type":"Feature","properties":{"ID":276,"Name":"TVS Cross ,PEENYA INDUSTRIAL AREA,IN FRONT OF MALLIPORE LIMITED","Category":"B"},"geometry":{"type":"Point","coordinates":[77.51956862,13.02859536]}},{"type":"Feature","properties":{"ID":277,"Name":"System Jalahalli Cross,PEENYA INDUSTRIAL AREA,IN FRONT OF SISTEMS MANUFACTURING PVT LTD","Category":"B"},"geometry":{"type":"Point","coordinates":[77.51791118,13.03500205]}},{"type":"Feature","properties":{"ID":278,"Name":"Jalahalli Cross","Category":"B"},"geometry":{"type":"Point","coordinates":[77.5182292,13.03962531]}},{"type":"Feature","properties":{"ID":279,"Name":"T Dasarahalli","Category":"B"},"geometry":{"type":"Point","coordinates":[77.5124183,13.04299089]}},{"type":"Feature","properties":{"ID":280,"Name":"Tumkur Road 8th Mile,8TH MILE,BESIDE DURGA SAW MILL","Category":"B"},"geometry":{"type":"Point","coordinates":[77.50749186,13.0460511]}},{"type":"Feature","properties":{"ID":281,"Name":"Widia School Bagalagunte,T.DASARAHALLI,BESIDE ESHWARI MEDICALS","Category":"B"},"geometry":{"type":"Point","coordinates":[77.50769846,13.05110028]}},{"type":"Feature","properties":{"ID":282,"Name":"Bagalagunte,BAGALAGUNTE,BESIDE MATAJI STEEL CENTER","Category":"B"},"geometry":{"type":"Point","coordinates":[77.5073039,13.05625177]}},{"type":"Feature","properties":{"ID":283,"Name":"Bone Mill,BONE MILL,BESIDE PAVAN MEDICALS","Category":"B"},"geometry":{"type":"Point","coordinates":[77.505073,13.063843]}},{"type":"Feature","properties":{"ID":284,"Name":"Sapthagiri College Chikka Banawara,KIRLOSKAR LAYOUT,BESIDE NEW UDUPI UPAHARA","Category":"B"},"geometry":{"type":"Point","coordinates":[77.50324138,13.06686905]}},{"type":"Feature","properties":{"ID":285,"Name":"Janapriya Apartments,JANAPRIYA APARTMENTS,BESIDE OPEN AREA","Category":"B"},"geometry":{"type":"Point","coordinates":[77.5030844,13.07345882]}},{"type":"Feature","properties":{"ID":286,"Name":"Chikkabanawara Railway Gate,CHIKKA BANAVARA,BESIDE GREEN COMFORT CAMPUS HOME","Category":"B"},"geometry":{"type":"Point","coordinates":[77.50461163,13.07550668]}},{"type":"Feature","properties":{"ID":287,"Name":"Chikkabanawara ,CHIKKA BANAVARA,BESIDE SUMA TRADERS","Category":"B"},"geometry":{"type":"Point","coordinates":[77.50021619,13.08190346]}},{"type":"Feature","properties":{"ID":288,"Name":"Borewell","Category":"B"},"geometry":{"type":"Point","coordinates":[77.68778156,12.95521833]}},{"type":"Feature","properties":{"ID":289,"Name":"Maratahalli","Category":"B"},"geometry":{"type":"Point","coordinates":[77.69509886,12.95643585]}},{"type":"Feature","properties":{"ID":290,"Name":"Maratahalli Bridge","Category":"B"},"geometry":{"type":"Point","coordinates":[77.70178,12.95693]}},{"type":"Feature","properties":{"ID":291,"Name":"Spice Garden","Category":"B"},"geometry":{"type":"Point","coordinates":[77.70905589,12.95647795]}},{"type":"Feature","properties":{"ID":292,"Name":"Kundalahalli Gate,KUNDALAHALLI,OPPOSITE OF HYPER CITY","Category":"B"},"geometry":{"type":"Point","coordinates":[77.71556402,12.95823549]}},{"type":"Feature","properties":{"ID":293,"Name":"BEML Gate,KUNDALAHALLI,OPPOSITE OF HYPER CITY","Category":"B"},"geometry":{"type":"Point","coordinates":[77.71645795,12.96110351]}},{"type":"Feature","properties":{"ID":294,"Name":"AECS Layout,KUNDALAHALLI,OPPOSITE OF BROOK FIELD","Category":"B"},"geometry":{"type":"Point","coordinates":[77.71824962,12.96515566]}},{"type":"Feature","properties":{"ID":295,"Name":"Graphite India","Category":"B"},"geometry":{"type":"Point","coordinates":[77.71143002,12.97818371]}},{"type":"Feature","properties":{"ID":296,"Name":"SAP ITPL,WHITEFIELD,IN FRONT OF SAP","Category":"B"},"geometry":{"type":"Point","coordinates":[77.71502449,12.97771912]}},{"type":"Feature","properties":{"ID":297,"Name":"Vydehi Hospital,WHITEFIELD,BESIDE TTMC BUS STAND","Category":"B"},"geometry":{"type":"Point","coordinates":[77.72678427,12.97665685]}},{"type":"Feature","properties":{"ID":298,"Name":"Sai Baba Hospital,WHITEFIELD,OPPOSITE OF SRI SATHYA SAI HOSPITAL","Category":"B"},"geometry":{"type":"Point","coordinates":[77.72846117,12.98366077]}},{"type":"Feature","properties":{"ID":299,"Name":"Pattandur Agrahara Gate,IN FRONT OF APPOLO PHARMACY","Category":"B"},"geometry":{"type":"Point","coordinates":[77.73373961,12.987941]}},{"type":"Feature","properties":{"ID":300,"Name":"ITPL,OPPOSITE OF I.T.P.L. MAIN GATE","Category":"B"},"geometry":{"type":"Point","coordinates":[77.73737274,12.98763917]}},{"type":"Feature","properties":{"ID":301,"Name":"B P L,OPPOSITE OF CINEMA HALL","Category":"B"},"geometry":{"type":"Point","coordinates":[77.74798868,12.98535343]}},{"type":"Feature","properties":{"ID":302,"Name":"Hope Farm","Category":"B"},"geometry":{"type":"Point","coordinates":[77.75221137,12.98260711]}},{"type":"Feature","properties":{"ID":303,"Name":"White Field","Category":"B"},"geometry":{"type":"Point","coordinates":[77.74999166,12.96934503]}},{"type":"Feature","properties":{"ID":304,"Name":"Varthuru Kodi","Category":"B"},"geometry":{"type":"Point","coordinates":[77.74543921,12.95695765]}},{"type":"Feature","properties":{"ID":305,"Name":"Ramagondanahalli Varthuru","Category":"B"},"geometry":{"type":"Point","coordinates":[77.73978427,12.9569131]}},{"type":"Feature","properties":{"ID":306,"Name":"Siddapura","Category":"B"},"geometry":{"type":"Point","coordinates":[77.73068212,12.95604268]}},{"type":"Feature","properties":{"ID":307,"Name":"Thubarahalli","Category":"B"},"geometry":{"type":"Point","coordinates":[77.72050289,12.95571269]}},{"type":"Feature","properties":{"ID":308,"Name":"Kundalahalli Gate","Category":"B"},"geometry":{"type":"Point","coordinates":[77.71367471,12.95582602]}},{"type":"Feature","properties":{"ID":309,"Name":"JP Nagara 1st Phase,SHAKAMBARI NAGARA,BESIDE APOLLO PHARMACY","Category":"B"},"geometry":{"type":"Point","coordinates":[77.57413776,12.91140972]}},{"type":"Feature","properties":{"ID":310,"Name":"Indira Gandhi Circle,SHAKAMBARI NAGARA,BESIDE S.B.M.LAYOUT","Category":"B"},"geometry":{"type":"Point","coordinates":[77.57893941,12.91088501]}},{"type":"Feature","properties":{"ID":311,"Name":"Eliyas Nagar,ILYASA NAGARA,BESIDE M.S.MADEENA STORE","Category":"B"},"geometry":{"type":"Point","coordinates":[77.56904369,12.90561058]}},{"type":"Feature","properties":{"ID":312,"Name":"Jn Of Ring Road,ILYAS NAGARA,BESIDE R.R.DIAGNOSTIC CENTER","Category":"B"},"geometry":{"type":"Point","coordinates":[77.5713144,12.90753393]}},{"type":"Feature","properties":{"ID":313,"Name":"Banashankari Bus Station","Category":"B"},"geometry":{"type":"Point","coordinates":[77.5733,12.9182]}},{"type":"Feature","properties":{"ID":314,"Name":"Kadirenahalli Cross,BANASHANKRI 2ND STAGE KAVERI NAGARA,BESIDE KAVERI GLASS & PLYWOODS","Category":"B"},"geometry":{"type":"Point","coordinates":[77.56743085,12.91381017]}},{"type":"Feature","properties":{"ID":315,"Name":"Dayananda Sagar College,KUMARASWAMY AYOUT 2ND STAGE,IN FRONT OF STATE BANK OF INDIA","Category":"B"},"geometry":{"type":"Point","coordinates":[77.56539382,12.90942179]}},{"type":"Feature","properties":{"ID":316,"Name":"Kumaraswamy Layout Police Station,KUMARA SWAMY LAYOUT,IN FRONT OF KUMARA SWAMY LAYOUT POLICE STATION","Category":"B"},"geometry":{"type":"Point","coordinates":[77.56271685,12.90516488]}},{"type":"Feature","properties":{"ID":317,"Name":"Kumaraswamy Layout","Category":"B"},"geometry":{"type":"Point","coordinates":[77.561565,12.902954]}},{"type":"Feature","properties":{"ID":318,"Name":"Canara Bank","Category":"B"},"geometry":{"type":"Point","coordinates":[77.55987,12.90086]}},{"type":"Feature","properties":{"ID":319,"Name":"ISRO Layout,ISRO LAYOUT,IN FRONT OF BHARTHIYA STATE BANK","Category":"B"},"geometry":{"type":"Point","coordinates":[77.55831004,12.89887542]}},{"type":"Feature","properties":{"ID":320,"Name":"Vasanthapura,VASANTHAPURA,BESIDE OPEN AREA","Category":"B"},"geometry":{"type":"Point","coordinates":[77.55210978,12.89635822]}},{"type":"Feature","properties":{"ID":321,"Name":"Brigade Road","Category":"B"},"geometry":{"type":"Point","coordinates":[77.60672572,12.97152762]}},{"type":"Feature","properties":{"ID":322,"Name":"St. Patrics Church","Category":"B"},"geometry":{"type":"Point","coordinates":[77.60687003,12.96580821]}},{"type":"Feature","properties":{"ID":323,"Name":"Johnson Market","Category":"B"},"geometry":{"type":"Point","coordinates":[77.60682366,12.96347424]}},{"type":"Feature","properties":{"ID":324,"Name":"Anepalya","Category":"B"},"geometry":{"type":"Point","coordinates":[77.60487302,12.95249647]}},{"type":"Feature","properties":{"ID":325,"Name":"MICO Gate","Category":"B"},"geometry":{"type":"Point","coordinates":[77.60283669,12.94455123]}},{"type":"Feature","properties":{"ID":326,"Name":"Bangalore Dairy Circle","Category":"B"},"geometry":{"type":"Point","coordinates":[77.60149512,12.93557206]}},{"type":"Feature","properties":{"ID":327,"Name":"Ashrama,OPPOSITE OF BHARATH PETROL BUNK","Category":"B"},"geometry":{"type":"Point","coordinates":[77.60048317,12.92576465]}},{"type":"Feature","properties":{"ID":328,"Name":"Gurappana palya","Category":"B"},"geometry":{"type":"Point","coordinates":[77.60016424,12.91949205]}},{"type":"Feature","properties":{"ID":329,"Name":"MICO Checkpost","Category":"B"},"geometry":{"type":"Point","coordinates":[77.60012383,12.91394365]}},{"type":"Feature","properties":{"ID":330,"Name":"JP Nagara 3rd Phase","Category":"B"},"geometry":{"type":"Point","coordinates":[77.60039072,12.90830179]}},{"type":"Feature","properties":{"ID":331,"Name":"Bilekalli","Category":"B"},"geometry":{"type":"Point","coordinates":[77.60115104,12.9007721]}},{"type":"Feature","properties":{"ID":332,"Name":"IIM Appolo Hospital","Category":"B"},"geometry":{"type":"Point","coordinates":[77.60008346,12.89651799]}},{"type":"Feature","properties":{"ID":333,"Name":"Arakere Gate Byrapura","Category":"B"},"geometry":{"type":"Point","coordinates":[77.5981027,12.8902041]}},{"type":"Feature","properties":{"ID":334,"Name":"BPL","Category":"B"},"geometry":{"type":"Point","coordinates":[77.597034,12.887442]}},{"type":"Feature","properties":{"ID":335,"Name":"Hulimavu Gate","Category":"B"},"geometry":{"type":"Point","coordinates":[77.5959377,12.88070285]}},{"type":"Feature","properties":{"ID":336,"Name":"Meenakshi Temple","Category":"B"},"geometry":{"type":"Point","coordinates":[77.594659,12.874185]}},{"type":"Feature","properties":{"ID":337,"Name":"Loyala School","Category":"B"},"geometry":{"type":"Point","coordinates":[77.5936447,12.87119325]}},{"type":"Feature","properties":{"ID":338,"Name":"Kalena Agrahara","Category":"B"},"geometry":{"type":"Point","coordinates":[77.59193714,12.86628369]}},{"type":"Feature","properties":{"ID":339,"Name":"Gottigere High School","Category":"B"},"geometry":{"type":"Point","coordinates":[77.59047392,12.86195091]}},{"type":"Feature","properties":{"ID":340,"Name":"Gottigere","Category":"B"},"geometry":{"type":"Point","coordinates":[77.58881403,12.8551655]}},{"type":"Feature","properties":{"ID":341,"Name":"TJohn College Cross","Category":"B"},"geometry":{"type":"Point","coordinates":[77.58843441,12.85057711]}},{"type":"Feature","properties":{"ID":342,"Name":"Basavanapura Gate","Category":"B"},"geometry":{"type":"Point","coordinates":[77.5883265,12.84642508]}},{"type":"Feature","properties":{"ID":343,"Name":"Koli Farm Gate Bannerghatta Road","Category":"B"},"geometry":{"type":"Point","coordinates":[77.58861309,12.84146763]}},{"type":"Feature","properties":{"ID":344,"Name":"Tulip Resort Cross","Category":"B"},"geometry":{"type":"Point","coordinates":[77.58912,12.83543]}},{"type":"Feature","properties":{"ID":345,"Name":"Kalkere","Category":"B"},"geometry":{"type":"Point","coordinates":[77.58909187,12.83260399]}},{"type":"Feature","properties":{"ID":346,"Name":"AMC College Bannerghatta Road","Category":"B"},"geometry":{"type":"Point","coordinates":[77.5881611,12.83053139]}},{"type":"Feature","properties":{"ID":347,"Name":"Jalli Machine Bannerghatta Road","Category":"B"},"geometry":{"type":"Point","coordinates":[77.58632219,12.82564977]}},{"type":"Feature","properties":{"ID":348,"Name":"Vijaya Bank Banneragatta Circle","Category":"B"},"geometry":{"type":"Point","coordinates":[77.58317322,12.81564763]}},{"type":"Feature","properties":{"ID":349,"Name":"Bannerghatta Circle","Category":"B"},"geometry":{"type":"Point","coordinates":[77.58101253,12.81364433]}},{"type":"Feature","properties":{"ID":350,"Name":"Sampigehalli,BHANNERGAHTTA POST","Category":"B"},"geometry":{"type":"Point","coordinates":[77.57900176,12.80572254]}},{"type":"Feature","properties":{"ID":351,"Name":"Bannerghatta National Park","Category":"B"},"geometry":{"type":"Point","coordinates":[77.57781608,12.80064982]}},{"type":"Feature","properties":{"ID":352,"Name":"Nagarabhavi BDA Complex,NAGARABHAVI 2ND STAGE,BESIDE BDA COMPLEX NAGARABHAVI","Category":"B"},"geometry":{"type":"Point","coordinates":[77.51068933,12.97910733]}},{"type":"Feature","properties":{"ID":353,"Name":"Papareddy Palya,PAPAREDDY PALYA,BESIDE SHARADA TIMBERS","Category":"B"},"geometry":{"type":"Point","coordinates":[77.50790019,12.9724246]}},{"type":"Feature","properties":{"ID":354,"Name":"Deepa Complex,PAPAREDDY PALYA,BESIDE DEEPA COMPLEX","Category":"B"},"geometry":{"type":"Point","coordinates":[77.50503483,12.9667717]}},{"type":"Feature","properties":{"ID":355,"Name":"Ambedkar College,80FEET OUTER RING ROAD,IN FRONT OF FISH PRODUCT SALES COUNTER","Category":"B"},"geometry":{"type":"Point","coordinates":[77.50497281,12.9602592]}},{"type":"Feature","properties":{"ID":356,"Name":"NGEF Layout,NGEF LAYOUT,IN FRONT OF TEJASWINI PHARMA","Category":"B"},"geometry":{"type":"Point","coordinates":[77.5097237,12.96094557]}},{"type":"Feature","properties":{"ID":357,"Name":"Nrupatunga Nagar,N.G.E.F.LAYOUT,IN FRONT OF TWINKLERS VIDYANIKETHAN","Category":"B"},"geometry":{"type":"Point","coordinates":[77.50991486,12.95807311]}},{"type":"Feature","properties":{"ID":358,"Name":"Nagarabhavi Village,NAGARABHAVI VILLAGE,BESIDE DANVANTHARI HOMEO CLINIC","Category":"B"},"geometry":{"type":"Point","coordinates":[77.51583147,12.95693232]}},{"type":"Feature","properties":{"ID":359,"Name":"NAGARBHAVI CIRCLE,NAGARABHAVI CIRCLE,OPPOSITE OF DURGA PARAMESHWARI HOTEL","Category":"B"},"geometry":{"type":"Point","coordinates":[77.51977512,12.95969765]}},{"type":"Feature","properties":{"ID":360,"Name":"Jyothi Nagara,JYOTHI NAGARA,IN FRONT OF BASAVESHWARA TRADERS","Category":"B"},"geometry":{"type":"Point","coordinates":[77.52165055,12.95937685]}},{"type":"Feature","properties":{"ID":361,"Name":"Chandra Layout,CHANDRA LAYOUT,OPPOSITE OF CHANDRAGIRI PALACE","Category":"B"},"geometry":{"type":"Point","coordinates":[77.52649907,12.9583007]}},{"type":"Feature","properties":{"ID":362,"Name":"Chandra Layout Ganesh temple,CHANDRA LAYOUT,BESIDE POST OFFICE","Category":"B"},"geometry":{"type":"Point","coordinates":[77.52880306,12.95836573]}},{"type":"Feature","properties":{"ID":363,"Name":"Chandra Public School Chandra Layout,CHANDRA LAYOUT,BESIDE SPIRIT JUNCTION","Category":"B"},"geometry":{"type":"Point","coordinates":[77.52952323,12.9604094]}},{"type":"Feature","properties":{"ID":364,"Name":"Income Tax Layout,VIJAYANAGARA,BESIDE A.M.HOSPITAL","Category":"B"},"geometry":{"type":"Point","coordinates":[77.53147989,12.96000726]}},{"type":"Feature","properties":{"ID":365,"Name":"Attiguppe,RPC LAYOUT,OPPOSITE OF SYNDICATE BANK","Category":"B"},"geometry":{"type":"Point","coordinates":[77.53404948,12.95796158]}},{"type":"Feature","properties":{"ID":366,"Name":"Deepanjalinagara Depot-16,DEEPANJALI NAGARA,OPPOSITE OF DEPOT 16","Category":"B"},"geometry":{"type":"Point","coordinates":[77.537268,12.951521]}},{"type":"Feature","properties":{"ID":367,"Name":"Bapuji Nagara","Category":"B"},"geometry":{"type":"Point","coordinates":[77.54215453,12.95357632]}},{"type":"Feature","properties":{"ID":368,"Name":"New Guddadahalli","Category":"B"},"geometry":{"type":"Point","coordinates":[77.54564716,12.95576633]}},{"type":"Feature","properties":{"ID":369,"Name":"Azad Nagar","Category":"B"},"geometry":{"type":"Point","coordinates":[77.55133839,12.95724423]}},{"type":"Feature","properties":{"ID":370,"Name":"Sirsi Circle,SIRSI CIRCLE","Category":"B"},"geometry":{"type":"Point","coordinates":[77.55693463,12.9604612]}},{"type":"Feature","properties":{"ID":371,"Name":"Vinayaka Talkies KR Market","Category":"B"},"geometry":{"type":"Point","coordinates":[77.56717,12.96328]}},{"type":"Feature","properties":{"ID":372,"Name":"Krishnarajendra Market,KR MARKET,OPPOSITE TO CHANDRA BHAVAN HOTEL","Category":"B"},"geometry":{"type":"Point","coordinates":[77.577499,12.964049]}},{"type":"Feature","properties":{"ID":373,"Name":"Town Hall","Category":"B"},"geometry":{"type":"Point","coordinates":[77.58425661,12.96393155]}},{"type":"Feature","properties":{"ID":374,"Name":"Kalyananagara Bus Stand,KALYAN NAGAR,OPPOSITE OF PANASONIC/GIRIAS SHOW ROOM","Category":"B"},"geometry":{"type":"Point","coordinates":[77.63833869,13.02655041]}},{"type":"Feature","properties":{"ID":375,"Name":"Kalyana Nagara,KALYANA NAGARA,OPPOSITE OF INDO ASIAN ACADEMY DEGREE COLLEGE","Category":"B"},"geometry":{"type":"Point","coordinates":[77.6364009,13.02636557]}},{"type":"Feature","properties":{"ID":376,"Name":"Hennur Cross","Category":"B"},"geometry":{"type":"Point","coordinates":[77.63600713,13.03161234]}},{"type":"Feature","properties":{"ID":377,"Name":"Hennur Depot","Category":"B"},"geometry":{"type":"Point","coordinates":[77.63170509,13.02563268]}},{"type":"Feature","properties":{"ID":378,"Name":"Kacharakanahalli,KACHARAKANAHALLI,OPPOSITE OF CHENNAKESHAVA TEMPLE","Category":"B"},"geometry":{"type":"Point","coordinates":[77.62991288,13.021393]}},{"type":"Feature","properties":{"ID":379,"Name":"Jyothi School Lingarajapura,KACHARAKANAHALLI,IN FRONT OF BETHEL CHURCH","Category":"B"},"geometry":{"type":"Point","coordinates":[77.6289124,13.01525731]}},{"type":"Feature","properties":{"ID":380,"Name":"Lingarajapuram,KARIYANA PALYA,IN FRONT OF SUCHI RUCHI VEG","Category":"B"},"geometry":{"type":"Point","coordinates":[77.62582375,13.0122262]}},{"type":"Feature","properties":{"ID":381,"Name":"Lingarajapura Bridge","Category":"B"},"geometry":{"type":"Point","coordinates":[77.62294,13.00847]}},{"type":"Feature","properties":{"ID":382,"Name":"CHARLES SCHOOL,SAGAYAPURAM,BESIDE ST CHARLES CONVENT","Category":"B"},"geometry":{"type":"Point","coordinates":[77.62103011,13.00617276]}},{"type":"Feature","properties":{"ID":383,"Name":"Sindhi Colony,FRAZER TOWN,IN FRONT OF BBMP CHOULTRY","Category":"B"},"geometry":{"type":"Point","coordinates":[77.61679616,12.99552399]}},{"type":"Feature","properties":{"ID":384,"Name":"Thoms Cafe,FRAZER TOWN,OPPOSITE OF CAR TRENDZ","Category":"B"},"geometry":{"type":"Point","coordinates":[77.61426704,12.9910735]}},{"type":"Feature","properties":{"ID":385,"Name":"Lavanya Talkies,BESIDE POPULAR AUTOMOBILES","Category":"B"},"geometry":{"type":"Point","coordinates":[77.61547102,12.98591042]}},{"type":"Feature","properties":{"ID":386,"Name":"Hasanath College,HALASURU,BESIDE HARANATHA COLLEGE","Category":"B"},"geometry":{"type":"Point","coordinates":[77.61506349,12.97919903]}},{"type":"Feature","properties":{"ID":387,"Name":"B Station","Category":"B"},"geometry":{"type":"Point","coordinates":[77.6136414,12.97370413]}},{"type":"Feature","properties":{"ID":388,"Name":"Jagajeevanram Nagara,J.J.NAGARA,BESIDE B.B.M.P. P.U.C. COLLEGE","Category":"B"},"geometry":{"type":"Point","coordinates":[77.55490104,12.96466514]}},{"type":"Feature","properties":{"ID":389,"Name":"Maramma Temple,K.H.RANGANATHA COLONY,OPPOSITE OF MARIYAMMA TEMPLE","Category":"B"},"geometry":{"type":"Point","coordinates":[77.5590106,12.96314609]}},{"type":"Feature","properties":{"ID":390,"Name":"Sirsi Circle","Category":"B"},"geometry":{"type":"Point","coordinates":[77.56075,12.96162]}},{"type":"Feature","properties":{"ID":391,"Name":"Chikkallasandra Bus Stand,IN FRONT OF U.K.RESIDENCY APARTMENTS","Category":"B"},"geometry":{"type":"Point","coordinates":[77.55222981,12.91506448]}},{"type":"Feature","properties":{"ID":392,"Name":"Mahesh Medicals,CHIKKALASANDRA,IN FRONT OF VINAYAKA PHOTO STUDIO","Category":"B"},"geometry":{"type":"Point","coordinates":[77.5499971,12.91405676]}},{"type":"Feature","properties":{"ID":393,"Name":"HSR BDA COMPLEX","Category":"B"},"geometry":{"type":"Point","coordinates":[77.63800903,12.91277555]}},{"type":"Feature","properties":{"ID":394,"Name":"14th Main HSR Layout","Category":"B"},"geometry":{"type":"Point","coordinates":[77.638223,12.917437]}},{"type":"Feature","properties":{"ID":395,"Name":"Jakkasandra","Category":"B"},"geometry":{"type":"Point","coordinates":[77.63691743,12.92512051]}},{"type":"Feature","properties":{"ID":396,"Name":"Koramangala","Category":"B"},"geometry":{"type":"Point","coordinates":[77.63459642,12.92482847]}},{"type":"Feature","properties":{"ID":397,"Name":"John Fowler,KORAMANAGALA,OPPOSITE OF TOSHIBHA COMPANY, IN FRONT OF KSRP QUARTERS","Category":"B"},"geometry":{"type":"Point","coordinates":[77.63080068,12.92410646]}},{"type":"Feature","properties":{"ID":398,"Name":"Koramangala Water Tank,KORAMANGALA,OPPOSITE OF AGARWAL EYE HOSPITAL & STATE BANK OF INDIA","Category":"B"},"geometry":{"type":"Point","coordinates":[77.62158914,12.92711975]}},{"type":"Feature","properties":{"ID":399,"Name":"Katriguppe ,KATHRIGUPPE,IN FRONT OF ANNA KUTEERA HOTEL","Category":"B"},"geometry":{"type":"Point","coordinates":[77.55029946,12.92608941]}},{"type":"Feature","properties":{"ID":400,"Name":"Vivekanada Nagara,VIVEKANANDA NAGARA,IN FRONT OF M.M.BAR & RESTAURANT","Category":"B"},"geometry":{"type":"Point","coordinates":[77.5535197,12.93050981]}},{"type":"Feature","properties":{"ID":401,"Name":"Vidya peeta Circle,VINAYAKANAGARA,IN FRONT OF KARNATAKA RAKSHANA VEDIKE OFFICE","Category":"B"},"geometry":{"type":"Point","coordinates":[77.55961846,12.93627757]}},{"type":"Feature","properties":{"ID":402,"Name":"Srinivasa Nagara,SRINIVASANAGARA,IN FRONT OF SHANKARA TIMBERS","Category":"B"},"geometry":{"type":"Point","coordinates":[77.55777762,12.93761418]}},{"type":"Feature","properties":{"ID":403,"Name":"Apex Bank,BANASHANKARI 1ST STAGE HANUMANTHA NAGARA,BESIDE ANJU FURNITURES","Category":"B"},"geometry":{"type":"Point","coordinates":[77.55568869,12.94171315]}},{"type":"Feature","properties":{"ID":404,"Name":"Nagendra Block,BANASHANKARI 3RD STAGE NAGENDRA BLOCK,BESIDE SWASTIK HARD WARE","Category":"B"},"geometry":{"type":"Point","coordinates":[77.55324,12.94184]}},{"type":"Feature","properties":{"ID":405,"Name":"Avalahalli BDA Park,AVALAHALLI BDA,OPPOSITE OF BDA PARK","Category":"B"},"geometry":{"type":"Point","coordinates":[77.54265198,12.94309893]}},{"type":"Feature","properties":{"ID":406,"Name":"Deepanjali nagara BMT-16,DEEPANJALI NAGARA,OPPOSITE OF DEPOT 16","Category":"B"},"geometry":{"type":"Point","coordinates":[77.53711477,12.95143477]}},{"type":"Feature","properties":{"ID":407,"Name":"Attiguppe,RPC LAYOUT,BESIDE SYNDICATE BANK","Category":"B"},"geometry":{"type":"Point","coordinates":[77.53383043,12.95778234]}},{"type":"Feature","properties":{"ID":408,"Name":"Vijayanagara TTMC,TTMC","Category":"B"},"geometry":{"type":"Point","coordinates":[77.53470224,12.96484267]}},{"type":"Feature","properties":{"ID":409,"Name":"Maruthi mandira,VIJAYANAGARA,BESIDE MATHA AIR TRAVELS","Category":"B"},"geometry":{"type":"Point","coordinates":[77.53611443,12.96780383]}},{"type":"Feature","properties":{"ID":410,"Name":"Vijayanagara,VIJAYANAGARA,IN FRONT OF INDRAPRASTHA HOTEL","Category":"B"},"geometry":{"type":"Point","coordinates":[77.53762216,12.97195279]}},{"type":"Feature","properties":{"ID":411,"Name":"Manu Vana Vijayanagara,VIJAYANAGARA,BESIDE STATE BANK INDIA","Category":"B"},"geometry":{"type":"Point","coordinates":[77.54451,12.974431]}},{"type":"Feature","properties":{"ID":412,"Name":"Magadi Road Dasarahalli","Category":"B"},"geometry":{"type":"Point","coordinates":[77.54065813,12.97889215]}},{"type":"Feature","properties":{"ID":413,"Name":"KHB Colony","Category":"B"},"geometry":{"type":"Point","coordinates":[77.535581,12.981106]}},{"type":"Feature","properties":{"ID":414,"Name":"Kamakshipalya","Category":"B"},"geometry":{"type":"Point","coordinates":[77.52803302,12.98432339]}},{"type":"Feature","properties":{"ID":415,"Name":"Summanahalli Magadi Road,SUMANAHALLI,UNDER THE FLYOVER","Category":"B"},"geometry":{"type":"Point","coordinates":[77.519228,12.987259]}},{"type":"Feature","properties":{"ID":416,"Name":"Kottige Palya Magadi Road","Category":"B"},"geometry":{"type":"Point","coordinates":[77.5153472,12.98781438]}},{"type":"Feature","properties":{"ID":417,"Name":"Aralimara Sunkadakatte,SUNKADA KATTE,OPPOSITE OF STATE BANK OF MYSORE","Category":"B"},"geometry":{"type":"Point","coordinates":[77.5045882,12.99205218]}},{"type":"Feature","properties":{"ID":418,"Name":"Vigneshwara Nagara,SUNKADA KATTE,IN FRONT OF SALLAPURADAMMA TEMPLE","Category":"B"},"geometry":{"type":"Point","coordinates":[77.5041715,12.99435628]}},{"type":"Feature","properties":{"ID":419,"Name":"Neelagiri Thopu,SUNKADA KATTE,IN FRONT OF S.S.K.CHOULTRY","Category":"B"},"geometry":{"type":"Point","coordinates":[77.5024757,12.99602941]}},{"type":"Feature","properties":{"ID":420,"Name":"Hegganahalli Cross,HEGGANA HALLI,OPPOSITE OF AMBIKA BAKERY & SWEETS","Category":"B"},"geometry":{"type":"Point","coordinates":[77.50395567,12.99975439]}},{"type":"Feature","properties":{"ID":421,"Name":"Hegganahalli,HEGGANA HALLI,OPPOSITE OF HODAY BADRIYA","Category":"B"},"geometry":{"type":"Point","coordinates":[77.50507125,13.00540549]}},{"type":"Feature","properties":{"ID":422,"Name":"Dairy Hegganahalli,HEGGANA HALLI,IN FRONT OF I.I.F.L.GOLD LOAN","Category":"B"},"geometry":{"type":"Point","coordinates":[77.5055349,13.00793246]}},{"type":"Feature","properties":{"ID":423,"Name":"Uttarahalli","Category":"B"},"geometry":{"type":"Point","coordinates":[77.53609939,12.90874274]}},{"type":"Feature","properties":{"ID":424,"Name":"Channasandra,CHANASANDRA,IN FRONT OF ANNAPOORNA RETAIL PVT LTD","Category":"B"},"geometry":{"type":"Point","coordinates":[77.52116574,12.90317184]}},{"type":"Feature","properties":{"ID":425,"Name":"BEML Layout 5th Stage,B.E.M.L. GATE LAYOUT,BESIDE PAVAN ELECTRICALS & HARDWARE SHOP","Category":"B"},"geometry":{"type":"Point","coordinates":[77.52094399,12.90972787]}},{"type":"Feature","properties":{"ID":426,"Name":"Double Road,B.E.M.L. DOUBLE ROAD CIRCLE,OPPOSITE OF SMART SUPER MARKET","Category":"B"},"geometry":{"type":"Point","coordinates":[77.52060865,12.91475597]}},{"type":"Feature","properties":{"ID":427,"Name":"BEML Complex,B.E.M.L. LAYOUT 3RD STAGE,OPPOSITE OF RAMANJANEYA TEMPLE &amp; B.E.M.L. COMPLEX","Category":"B"},"geometry":{"type":"Point","coordinates":[77.520303,12.919581]}},{"type":"Feature","properties":{"ID":428,"Name":"BEML Gate,B.E.M.L. LAYOUT 3RD STAGE,IN FRONT OF RAJESHWARI NAGARA, RESIDENTS WELFARE ASSOCIATION","Category":"B"},"geometry":{"type":"Point","coordinates":[77.51832551,12.92273414]}},{"type":"Feature","properties":{"ID":429,"Name":"Ideal Homes,RAJA RAJESHWARI NAGARA,IN FRONT OF NIMISHAMBHA DEVI TEMPLE","Category":"B"},"geometry":{"type":"Point","coordinates":[77.51785254,12.9248344]}},{"type":"Feature","properties":{"ID":430,"Name":"Raja Rajeshwari Temple,RAJESHWARI NAGARA,BESIDE RAJA RAJESHWARI TEMPLE","Category":"B"},"geometry":{"type":"Point","coordinates":[77.51109828,12.92716891]}},{"type":"Feature","properties":{"ID":431,"Name":"RRSchool,IN FRONT OF RAJESHWARI SCHOOL","Category":"B"},"geometry":{"type":"Point","coordinates":[77.51417149,12.92839583]}},{"type":"Feature","properties":{"ID":432,"Name":"PETROL BUNK,RAJA RAJESHWARI NAGARA,OPPOSITE OF INDIAN OIL PETROL BUNK","Category":"B"},"geometry":{"type":"Point","coordinates":[77.51618322,12.93298581]}},{"type":"Feature","properties":{"ID":433,"Name":"Rajarajeshwarinagara Gate","Category":"B"},"geometry":{"type":"Point","coordinates":[77.51639508,12.9361908]}},{"type":"Feature","properties":{"ID":434,"Name":"Bangalore Univercity Gate Mysore Road,MYSORE ROAD,IN FRONT OF UNIVERSITY GATE, RAILWAY BRIDGE","Category":"B"},"geometry":{"type":"Point","coordinates":[77.51265599,12.93595335]}},{"type":"Feature","properties":{"ID":435,"Name":"Ladies Hostel University Campus,BANGALORE UNIVERSITY,IN FRONT OF CIVIL ENGINEERING DEPARTMENT UNIVERSITY","Category":"B"},"geometry":{"type":"Point","coordinates":[77.5056442,12.9421361]}},{"type":"Feature","properties":{"ID":436,"Name":"Library University,BANGALORE UNIVERSITY,IN FRONT OF MUNESHWARA SWAMY TEMPLE","Category":"B"},"geometry":{"type":"Point","coordinates":[77.50449931,12.9438269]}},{"type":"Feature","properties":{"ID":437,"Name":"Bangalore University Administrative Block,BANGALORE UNIVERSITY,NEAR HEAD OFFICE BANGALORE UNIVERSITY","Category":"B"},"geometry":{"type":"Point","coordinates":[77.50106072,12.94906391]}},{"type":"Feature","properties":{"ID":438,"Name":"University Quarters","Category":"B"},"geometry":{"type":"Point","coordinates":[77.50015,12.95176]}},{"type":"Feature","properties":{"ID":439,"Name":"Koli Farm University Quatres","Category":"B"},"geometry":{"type":"Point","coordinates":[77.49796,12.95199]}},{"type":"Feature","properties":{"ID":440,"Name":"Press Layout Ullal Road","Category":"B"},"geometry":{"type":"Point","coordinates":[77.49131,12.95035]}},{"type":"Feature","properties":{"ID":441,"Name":"Amma ashrama cross","Category":"B"},"geometry":{"type":"Point","coordinates":[77.48908,12.94946]}},{"type":"Feature","properties":{"ID":442,"Name":"Vidyanikethan Public School","Category":"B"},"geometry":{"type":"Point","coordinates":[77.48675,12.95061]}},{"type":"Feature","properties":{"ID":443,"Name":"Manganahalli Cross","Category":"B"},"geometry":{"type":"Point","coordinates":[77.48446,12.95135]}},{"type":"Feature","properties":{"ID":444,"Name":"Hullalu","Category":"B"},"geometry":{"type":"Point","coordinates":[77.48018,12.95551]}},{"type":"Feature","properties":{"ID":445,"Name":"Hullala Bar Stop","Category":"B"},"geometry":{"type":"Point","coordinates":[77.478696,12.961506]}},{"type":"Feature","properties":{"ID":446,"Name":"Hullala Upanagara","Category":"B"},"geometry":{"type":"Point","coordinates":[77.47524,12.96243]}},{"type":"Feature","properties":{"ID":447,"Name":"Kengeri Satelite Town,KENGERI UPANAGARA,IN FRONT OF KARUNA BAKERES & SWEETS","Category":"B"},"geometry":{"type":"Point","coordinates":[77.48614169,12.92250987]}},{"type":"Feature","properties":{"ID":448,"Name":"Railway Station Kengeri","Category":"B"},"geometry":{"type":"Point","coordinates":[77.48444049,12.92237251]}},{"type":"Feature","properties":{"ID":449,"Name":"Jn of Kommaghatta Road","Category":"B"},"geometry":{"type":"Point","coordinates":[77.48218418,12.91611473]}},{"type":"Feature","properties":{"ID":450,"Name":"Ganesha Temple","Category":"B"},"geometry":{"type":"Point","coordinates":[77.48073544,12.91229468]}},{"type":"Feature","properties":{"ID":451,"Name":"Kengeri Police Station","Category":"B"},"geometry":{"type":"Point","coordinates":[77.48319013,12.91048265]}},{"type":"Feature","properties":{"ID":452,"Name":"Kengeri TTMC","Category":"B"},"geometry":{"type":"Point","coordinates":[77.48630136,12.91390887]}},{"type":"Feature","properties":{"ID":453,"Name":"Mylasandra Gate","Category":"B"},"geometry":{"type":"Point","coordinates":[77.49101582,12.91856635]}},{"type":"Feature","properties":{"ID":454,"Name":"RV College","Category":"B"},"geometry":{"type":"Point","coordinates":[77.49936587,12.92549401]}},{"type":"Feature","properties":{"ID":455,"Name":"Jayaram Das Factory","Category":"B"},"geometry":{"type":"Point","coordinates":[77.50609263,12.93094676]}},{"type":"Feature","properties":{"ID":456,"Name":"Bangalore University Gate Mysore Road","Category":"B"},"geometry":{"type":"Point","coordinates":[77.51334378,12.93579871]}},{"type":"Feature","properties":{"ID":457,"Name":"Shanthinagar TTMC","Category":"B"},"geometry":{"type":"Point","coordinates":[77.59298565,12.95407042]}},{"type":"Feature","properties":{"ID":458,"Name":"Jambu Savari Dinne","Category":"B"},"geometry":{"type":"Point","coordinates":[77.58100308,12.86578233]}},{"type":"Feature","properties":{"ID":459,"Name":"Surabhi,J.P.NAGARA 8TH PHASE, SURABHI NAGARA,IN FRONT OF VINAYAKA TIMBERS","Category":"B"},"geometry":{"type":"Point","coordinates":[77.58184124,12.86773679]}},{"type":"Feature","properties":{"ID":460,"Name":"B K Circle,J.P.NAGARA 8TH PHASE,IN FRONT OF UNIVERSAL GRANITES","Category":"B"},"geometry":{"type":"Point","coordinates":[77.58314417,12.87069076]}},{"type":"Feature","properties":{"ID":461,"Name":"Kothnuru Kanakapura Road,J.P.NAGARA 8TH PHASE,IN FRONT OF GANESHA TEMPLE","Category":"B"},"geometry":{"type":"Point","coordinates":[77.58392041,12.877622]}},{"type":"Feature","properties":{"ID":462,"Name":"Navodaya Nagara,NAVODAYA NAGARA,OPPOSITE OF VISHWAS SHOPPING CENTRE","Category":"B"},"geometry":{"type":"Point","coordinates":[77.58372479,12.88127255]}},{"type":"Feature","properties":{"ID":463,"Name":"Gourav Nagara,GOWRAVA NAGARA,IN FRONT OF KANISHKA DIAGNOSTIC","Category":"B"},"geometry":{"type":"Point","coordinates":[77.58257359,12.88463606]}},{"type":"Feature","properties":{"ID":464,"Name":"RBI Layout,R.B.I.LAYOUT,IN FRONT OF SOMESHWARA SABHA BHAVANA","Category":"B"},"geometry":{"type":"Point","coordinates":[77.5818479,12.88803657]}},{"type":"Feature","properties":{"ID":465,"Name":"Brigade Millanium,R.B.I.LAYOUT,IN FRONT OF APOLLO PHARMACY","Category":"B"},"geometry":{"type":"Point","coordinates":[77.58181885,12.89208879]}},{"type":"Feature","properties":{"ID":466,"Name":"Puttenahalli,PUTTENAHALLI,IN FRONT OF NANJUNDESHWARA TEMPLE","Category":"B"},"geometry":{"type":"Point","coordinates":[77.58244414,12.8981187]}},{"type":"Feature","properties":{"ID":467,"Name":"CV Raman Nagara","Category":"B"},"geometry":{"type":"Point","coordinates":[77.66412566,12.98565947]}},{"type":"Feature","properties":{"ID":468,"Name":"CGHS Nagavar Palya,C.V.RAMAN NAGARA,OPPOSITE OF PLAY GROUND","Category":"B"},"geometry":{"type":"Point","coordinates":[77.66235093,12.98717679]}},{"type":"Feature","properties":{"ID":469,"Name":"DRDO Qts,C.V.RAMAN NAGARA,IN FRONT OF MES SERVICE CENTER NO-1","Category":"B"},"geometry":{"type":"Point","coordinates":[77.66133126,12.98453495]}},{"type":"Feature","properties":{"ID":470,"Name":"LRDE,C.V.RAMAN NAGARA,IN FRONT OF ELECTRONIC & RADAR DEVELOPMENT ESTABLISMENT","Category":"B"},"geometry":{"type":"Point","coordinates":[77.65673364,12.98070059]}},{"type":"Feature","properties":{"ID":471,"Name":"GTRE,HAL 3RD STAGE,BESIDE BEML LIMITED BANGALORE COMPLEX","Category":"B"},"geometry":{"type":"Point","coordinates":[77.65566,12.97587]}},{"type":"Feature","properties":{"ID":472,"Name":"BEML Gate,BEML,OPPOSITE OF BEML LIMITED","Category":"B"},"geometry":{"type":"Point","coordinates":[77.65911273,12.97115729]}},{"type":"Feature","properties":{"ID":473,"Name":"Jn of Suranjandas Road,HAL 3RD STAGE,IN FRONT OF STATE BANK OF INDIA","Category":"B"},"geometry":{"type":"Point","coordinates":[77.6612821,12.9667181]}},{"type":"Feature","properties":{"ID":474,"Name":"Jeevan Bheema Nagar","Category":"B"},"geometry":{"type":"Point","coordinates":[77.65797,12.96721]}},{"type":"Feature","properties":{"ID":475,"Name":"Jeevanbhimanagara Petrol Bunk,HAL 3RD STAGE,BESIDE OF INDIAN OIL PETROL BANK","Category":"B"},"geometry":{"type":"Point","coordinates":[77.65469525,12.96757026]}},{"type":"Feature","properties":{"ID":476,"Name":"Kodihalli,HAL 3RD STAGE WARD-58,OPPOSITE OF ICICI BANK","Category":"B"},"geometry":{"type":"Point","coordinates":[77.64994168,12.96847398]}},{"type":"Feature","properties":{"ID":477,"Name":"Tippasandra,HAL 2ND STAGE,OPPOSITE OF COLUMBIA ASIA","Category":"B"},"geometry":{"type":"Point","coordinates":[77.64682555,12.97365597]}},{"type":"Feature","properties":{"ID":478,"Name":"Chinmaya Mission Hospital,INDIRANAGARA,BESIDE CHINMAYA HOSPITAL","Category":"B"},"geometry":{"type":"Point","coordinates":[77.64605892,12.97844904]}},{"type":"Feature","properties":{"ID":479,"Name":"Thambuchetty Palya,T.C.PALYA,OPPOSITE OF ANTHONY COMPOSITE P.U COLLEGE","Category":"B"},"geometry":{"type":"Point","coordinates":[77.70011895,13.02144051]}},{"type":"Feature","properties":{"ID":480,"Name":"Anandapura,ANANDAPURA,IN FRONT OF NATIONAL BAKERY & SWEETS","Category":"B"},"geometry":{"type":"Point","coordinates":[77.6929489,13.02410155]}},{"type":"Feature","properties":{"ID":481,"Name":"Bhakthi Yoga Ashrama","Category":"B"},"geometry":{"type":"Point","coordinates":[77.687973,13.021965]}},{"type":"Feature","properties":{"ID":482,"Name":"Akshya Nagara,AKSHAYA NAGARA,IN FRONT OF IDEAL MART SUPER MARKET","Category":"B"},"geometry":{"type":"Point","coordinates":[77.6835178,13.02062514]}},{"type":"Feature","properties":{"ID":483,"Name":"Koudenahalli Cross,RAMAMURTHI NAGARA,IN FRONT OF BHAGYALAKSHMI GLASS & PLY WOODS","Category":"B"},"geometry":{"type":"Point","coordinates":[77.67906639,13.02117155]}},{"type":"Feature","properties":{"ID":484,"Name":"Muneshwara Layout,RAMAMURTHI NAGARA,IN FRONT OF J.M.J.CYBER CENTER","Category":"B"},"geometry":{"type":"Point","coordinates":[77.67185153,13.01815353]}},{"type":"Feature","properties":{"ID":485,"Name":"B Channasandra Bridge,RAMAMURTHI NAGARA,BESIDE RAILWAY BRIDGE","Category":"B"},"geometry":{"type":"Point","coordinates":[77.66274973,13.01302277]}},{"type":"Feature","properties":{"ID":486,"Name":"Kasthurinagara,KASTURI NAGARA,IN FRONT OF SPENCERS","Category":"B"},"geometry":{"type":"Point","coordinates":[77.66121769,13.00261622]}},{"type":"Feature","properties":{"ID":487,"Name":"Bennigana Halli,KASTURI NAGARA,IN FRONT OF AUXILIARY PANEL CHANNASANDRA BYPASS","Category":"B"},"geometry":{"type":"Point","coordinates":[77.66286481,12.99711283]}},{"type":"Feature","properties":{"ID":488,"Name":"NGEF Ground,SADANANDA NAGARA,OPPOSITE OF N.G.E.F.FACTORY","Category":"B"},"geometry":{"type":"Point","coordinates":[77.65162793,12.9918152]}},{"type":"Feature","properties":{"ID":489,"Name":"Isolation Hospital","Category":"B"},"geometry":{"type":"Point","coordinates":[77.64322018,12.98488423]}},{"type":"Feature","properties":{"ID":490,"Name":"Binnamangala,INDIRANAGARA,OPPOSITE OF LEO MOTORS, MARUTI SUZUKI","Category":"B"},"geometry":{"type":"Point","coordinates":[77.64068229,12.98363665]}},{"type":"Feature","properties":{"ID":491,"Name":"Indiranagar Police Station,INDIRA NAGARA,BESIDE WILLS LIFE STYLE & SYNDICATE BANK","Category":"B"},"geometry":{"type":"Point","coordinates":[77.64106834,12.97697095]}},{"type":"Feature","properties":{"ID":492,"Name":"Indiranagar 6th main,INDIRA NAGARA,BESIDE E.ZONE","Category":"B"},"geometry":{"type":"Point","coordinates":[77.64116629,12.97406394]}},{"type":"Feature","properties":{"ID":493,"Name":"New Horizon School,INDIRA NAGARA,BESIDE METHODIST CHURCH","Category":"B"},"geometry":{"type":"Point","coordinates":[77.64148308,12.96839207]}},{"type":"Feature","properties":{"ID":494,"Name":"Doopanahalli,DOMLURU,BESIDE 17TH MAIN BAJAJ MOTORS","Category":"B"},"geometry":{"type":"Point","coordinates":[77.64174803,12.96325246]}},{"type":"Feature","properties":{"ID":495,"Name":"New Bridge,DOMLURU,BESIDE EMBESSY GROUP","Category":"B"},"geometry":{"type":"Point","coordinates":[77.6397057,12.95118118]}},{"type":"Feature","properties":{"ID":496,"Name":"Girinagara Extention,BESIDE KAVYA DIGITAL STUDIO","Category":"B"},"geometry":{"type":"Point","coordinates":[77.53977002,12.94111859]}},{"type":"Feature","properties":{"ID":497,"Name":"Girinagara Circle,GIRINAGARA,OPPOSITE OF N.D.R.R.COMPLEX","Category":"B"},"geometry":{"type":"Point","coordinates":[77.54512428,12.94094438]}},{"type":"Feature","properties":{"ID":498,"Name":"Girinagar Cross,AVALAHALLI BDA,BESIDE LG SHOW ROOM","Category":"B"},"geometry":{"type":"Point","coordinates":[77.54450211,12.94306791]}},{"type":"Feature","properties":{"ID":499,"Name":"Muneshwara Block,MUNESHWARA BLOCK,BESIDE PRABHU BHAVAN SWEETS","Category":"B"},"geometry":{"type":"Point","coordinates":[77.54845626,12.94225283]}},{"type":"Feature","properties":{"ID":500,"Name":"Nagendra Block,BANASHANKARI 3RD STAGE NAGENDRA BLOCK","Category":"B"},"geometry":{"type":"Point","coordinates":[77.55326,12.94189]}},{"type":"Feature","properties":{"ID":501,"Name":"Apex Bank,BANASHANKARI 1ST STAGE HANUMANTHA NAGARA,BESIDE PLANTS SHOW ROOM","Category":"B"},"geometry":{"type":"Point","coordinates":[77.55587,12.94178]}},{"type":"Feature","properties":{"ID":502,"Name":"Maruthi Circle,HANUMANTHA NAGARA,OPPOSITE OF GANESHA TEMPLE, CHAMARAJA PETE","Category":"B"},"geometry":{"type":"Point","coordinates":[77.55848655,12.94347167]}},{"type":"Feature","properties":{"ID":503,"Name":"Sri Krishna Traders","Category":"B"},"geometry":{"type":"Point","coordinates":[77.56210137,12.94353493]}},{"type":"Feature","properties":{"ID":504,"Name":"Hanumantha Nagara Ward Office,HANUMANTHA NAGARA,OPPOSITE OF AXIS BANK & HDFC BANK ATM","Category":"B"},"geometry":{"type":"Point","coordinates":[77.56419241,12.94403355]}},{"type":"Feature","properties":{"ID":505,"Name":"Syndicate Bank,HANUMANTHA NAGARA,IN FRONT OF AMRIN BEDDING HOUSE","Category":"B"},"geometry":{"type":"Point","coordinates":[77.56418143,12.94651432]}},{"type":"Feature","properties":{"ID":506,"Name":"8th Mile T Dasarahalli,8TH MILE,BESIDE A.K.SCOOTER WORKS","Category":"B"},"geometry":{"type":"Point","coordinates":[77.50555451,13.04553673]}},{"type":"Feature","properties":{"ID":507,"Name":"Rukmini nagara,RUKMINI NAGARA,BESIDE OPEN AREA","Category":"B"},"geometry":{"type":"Point","coordinates":[77.50487471,13.04086762]}},{"type":"Feature","properties":{"ID":508,"Name":"Nagasandra Cross,NAGASANDRA CROSS,BESIDE SRIDEVI ENTERPRISES","Category":"B"},"geometry":{"type":"Point","coordinates":[77.50455043,13.03861693]}},{"type":"Feature","properties":{"ID":509,"Name":"Om timber,H.M.T.LAYOUT CROSS,BESIDE S.S.M. PUBLIC SCHOOL","Category":"B"},"geometry":{"type":"Point","coordinates":[77.50413609,13.03360097]}},{"type":"Feature","properties":{"ID":510,"Name":"Nelagedaranahalli,NELAGADARAHALLI,BESIDE MANJU DELUXE BAR & RESTAURANT","Category":"B"},"geometry":{"type":"Point","coordinates":[77.50354617,13.03149914]}},{"type":"Feature","properties":{"ID":511,"Name":"Gruhalaxmi layout,GRUHALAKSHMI LAYOUT,BESIDE B.B.M.P. OFFICE","Category":"B"},"geometry":{"type":"Point","coordinates":[77.49791994,13.0289903]}},{"type":"Feature","properties":{"ID":512,"Name":"Karihobanahalli Cross,KARIHOBANAHALLI,BESIDE RESIDENTIAL AREA","Category":"B"},"geometry":{"type":"Point","coordinates":[77.48639507,13.0248452]}},{"type":"Feature","properties":{"ID":513,"Name":"Thigalara Palya,THIGALARAPALYA,BESIDE RESIDENTIAL AREA","Category":"B"},"geometry":{"type":"Point","coordinates":[77.4832306,13.01668505]}},{"type":"Feature","properties":{"ID":514,"Name":"Syndicate bank Colony Andrahalli,SYNDICATE BANK LAYOUT,BESIDE OPEN AREA","Category":"B"},"geometry":{"type":"Point","coordinates":[77.48941078,12.99806565]}},{"type":"Feature","properties":{"ID":515,"Name":"Layout Herohalli,VENKATESHWARA LAYOUT,BESIDE PAVITHRA STORES","Category":"B"},"geometry":{"type":"Point","coordinates":[77.48861058,12.99328205]}},{"type":"Feature","properties":{"ID":516,"Name":"Thunga Nagara,TUNGA NAGARA,BESIDE SNEHA TELECOMMUNICATIONS","Category":"B"},"geometry":{"type":"Point","coordinates":[77.48519938,12.99181876]}},{"type":"Feature","properties":{"ID":517,"Name":"Byadarahalli","Category":"B"},"geometry":{"type":"Point","coordinates":[77.4820096,12.98503195]}},{"type":"Feature","properties":{"ID":518,"Name":"Srinivasapura","Category":"B"},"geometry":{"type":"Point","coordinates":[77.65491795,12.98998662]}},{"type":"Feature","properties":{"ID":519,"Name":"CGHS,C.V.RAMAN NAGARA,OPPOSITE OF THE AERONAUTICAL SOCIETY OF INDIA","Category":"B"},"geometry":{"type":"Point","coordinates":[77.64815099,12.98637324]}},{"type":"Feature","properties":{"ID":520,"Name":"CV Raman Nagara,C.V.RAMAN NAGARA,IN FRONT OF HAL ENGINE DIVISION","Category":"B"},"geometry":{"type":"Point","coordinates":[77.64942143,12.98367704]}},{"type":"Feature","properties":{"ID":521,"Name":"Banashankari 3rd Stage 2nd Phase,BESIDE HOSAKEREHALLI VIDYA NAGARA NEW BUS STAND","Category":"B"},"geometry":{"type":"Point","coordinates":[77.53986784,12.9341515]}},{"type":"Feature","properties":{"ID":522,"Name":"Seetha Cricle","Category":"B"},"geometry":{"type":"Point","coordinates":[77.54907,12.93733]}},{"type":"Feature","properties":{"ID":523,"Name":"Bank Colony,BANASHANKARI 1ST STAGE, SRINIVASANAGARA,IN FRONT OF SULABH SHOWCHALAYA","Category":"B"},"geometry":{"type":"Point","coordinates":[77.55354394,12.9386028]}},{"type":"Feature","properties":{"ID":524,"Name":"Srinivasa Nagara,BANASHANKARI 1ST STAGE, SRINIVASANAGARA,OPPOSITE OF BANK OF BARODA","Category":"B"},"geometry":{"type":"Point","coordinates":[77.55652583,12.93826278]}},{"type":"Feature","properties":{"ID":525,"Name":"Abbigere Village,ABBIGERE,BESIDE PANCHAMUKHA GANAPATHI TEMPLE","Category":"B"},"geometry":{"type":"Point","coordinates":[77.52595564,13.07678123]}},{"type":"Feature","properties":{"ID":526,"Name":"Abbigere","Category":"B"},"geometry":{"type":"Point","coordinates":[77.5236236,13.07252749]}},{"type":"Feature","properties":{"ID":527,"Name":"Abbigere Dinne,ABBIGERE,BESIDE SRI GANESH FAST FOOD","Category":"B"},"geometry":{"type":"Point","coordinates":[77.52776856,13.07117714]}},{"type":"Feature","properties":{"ID":528,"Name":"Abbigere Cross,ABBIGERE CROSS,BESIDE OPEN AREA","Category":"B"},"geometry":{"type":"Point","coordinates":[77.52956119,13.07079209]}},{"type":"Feature","properties":{"ID":529,"Name":"Kammagondanahalli Temple,KAMMAGONDANAHALLI,BESIDE POOJA JEWELLERS & BANKERS","Category":"B"},"geometry":{"type":"Point","coordinates":[77.5306547,13.06374076]}},{"type":"Feature","properties":{"ID":530,"Name":"SRS Mathikere,KAMMAGONDANAHALLI,BESIDE SRI VENKATESHWARA RICE TRADERS","Category":"B"},"geometry":{"type":"Point","coordinates":[77.53125372,13.06094007]}},{"type":"Feature","properties":{"ID":531,"Name":"KG Halli Post Office,KAMMAGONDANAHALLI,BESIDE LINO FOOT WEAR","Category":"B"},"geometry":{"type":"Point","coordinates":[77.53273618,13.05683406]}},{"type":"Feature","properties":{"ID":532,"Name":"KG Halli Bridge,K.G.HALLI,BESIDE SALEEM STORES","Category":"B"},"geometry":{"type":"Point","coordinates":[77.53469693,13.05504364]}},{"type":"Feature","properties":{"ID":533,"Name":"Jalahalli West,INDIAN AIR FORCE JALAHALLI,OPPOSITE OF NO.1 SNCOS MESS","Category":"B"},"geometry":{"type":"Point","coordinates":[77.53027243,13.05296091]}},{"type":"Feature","properties":{"ID":534,"Name":"Shetty Halli Cross,INDIAN AIR FORCE JALAHALLI,NEAR & OPPOSITE OF STATE BANK OF INDIA ATM","Category":"B"},"geometry":{"type":"Point","coordinates":[77.52549003,13.05005981]}},{"type":"Feature","properties":{"ID":535,"Name":"Jalahalli Cross Ayyappa Temple,JALAHALLI WEST,IN FRONT OF AYYAPPA TEMPLE","Category":"B"},"geometry":{"type":"Point","coordinates":[77.52238847,13.04635224]}},{"type":"Feature","properties":{"ID":536,"Name":"Jalahalli Cross,PEENYA INDUSTRIAL AREA,OPPOSITE OF INDIAN BANK","Category":"B"},"geometry":{"type":"Point","coordinates":[77.51832233,13.03844995]}},{"type":"Feature","properties":{"ID":537,"Name":"System Jalahalli Cross,PEENYA INDUSTRIAL AREA,IN FRONT OF NEW TIMBER INDUSTRY","Category":"B"},"geometry":{"type":"Point","coordinates":[77.51805302,13.03497505]}},{"type":"Feature","properties":{"ID":538,"Name":"TVS Cross Peenya 2nd Stage,PEENYA INDUSTRIAL AREA,OPPOSITE OF SRI DHARMASTALA UPAHAR HOTEL","Category":"B"},"geometry":{"type":"Point","coordinates":[77.51897865,13.02815886]}},{"type":"Feature","properties":{"ID":539,"Name":"Rolling Mill,PEENYA INDUSTRIAL AREA,IN FRONT OF HITZE EQUIPMENTS PVT LTD","Category":"B"},"geometry":{"type":"Point","coordinates":[77.5149225,13.0265659]}},{"type":"Feature","properties":{"ID":540,"Name":"NTTF,N.T.T.F.CROSS,OPPOSITE OF INDIAN BANK","Category":"B"},"geometry":{"type":"Point","coordinates":[77.51082798,13.02428688]}},{"type":"Feature","properties":{"ID":541,"Name":"Brundavana Peenya 2nd Stage,PEENYA INDUSTRIAL AREA 2ND STAGE,OPPOSITE OF INDIAN BANK","Category":"B"},"geometry":{"type":"Point","coordinates":[77.50824485,13.02045107]}},{"type":"Feature","properties":{"ID":542,"Name":"Peenya 2nd stage 14th Cross,PEENYA INDUSTRIAL AREA 2ND STAGE,OPPOSITE OF PEENYA GYMKHANA","Category":"B"},"geometry":{"type":"Point","coordinates":[77.50596162,13.01631854]}},{"type":"Feature","properties":{"ID":543,"Name":"Rajagopalanagar Rajni Farms,PEENYA INDUSTRIAL AREA 2ND STAGE,BESIDE CANARA BANK ATM","Category":"B"},"geometry":{"type":"Point","coordinates":[77.50891868,13.01382245]}},{"type":"Feature","properties":{"ID":544,"Name":"Nelamangala","Category":"B"},"geometry":{"type":"Point","coordinates":[77.39435376,13.09781176]}},{"type":"Feature","properties":{"ID":545,"Name":"TB Stop Nelamangla Road","Category":"B"},"geometry":{"type":"Point","coordinates":[77.40134266,13.09727411]}},{"type":"Feature","properties":{"ID":546,"Name":"Weavers Colony Nelamangala","Category":"B"},"geometry":{"type":"Point","coordinates":[77.40543427,13.09427635]}},{"type":"Feature","properties":{"ID":547,"Name":"Nursery","Category":"B"},"geometry":{"type":"Point","coordinates":[77.40924096,13.09029465]}},{"type":"Feature","properties":{"ID":548,"Name":"Binnamangala","Category":"B"},"geometry":{"type":"Point","coordinates":[77.41254238,13.08747502]}},{"type":"Feature","properties":{"ID":549,"Name":"Arishinakunte","Category":"B"},"geometry":{"type":"Point","coordinates":[77.42402231,13.08029459]}},{"type":"Feature","properties":{"ID":550,"Name":"Devanna Palya","Category":"B"},"geometry":{"type":"Point","coordinates":[77.4307192,13.07793031]}},{"type":"Feature","properties":{"ID":551,"Name":"Dasanapura","Category":"B"},"geometry":{"type":"Point","coordinates":[77.43640073,13.07538406]}},{"type":"Feature","properties":{"ID":552,"Name":"Adakamaranahalli","Category":"B"},"geometry":{"type":"Point","coordinates":[77.44490398,13.07070795]}},{"type":"Feature","properties":{"ID":553,"Name":"Makali","Category":"B"},"geometry":{"type":"Point","coordinates":[77.4536598,13.06579601]}},{"type":"Feature","properties":{"ID":554,"Name":"Madanayakanahalli","Category":"B"},"geometry":{"type":"Point","coordinates":[77.46130707,13.06125751]}},{"type":"Feature","properties":{"ID":555,"Name":"TCI Tumkur Road","Category":"B"},"geometry":{"type":"Point","coordinates":[77.46596618,13.05909673]}},{"type":"Feature","properties":{"ID":556,"Name":"Madavara","Category":"B"},"geometry":{"type":"Point","coordinates":[77.47472303,13.05673306]}},{"type":"Feature","properties":{"ID":557,"Name":"Anchepalya Nelamangla Road","Category":"B"},"geometry":{"type":"Point","coordinates":[77.47985503,13.05525801]}},{"type":"Feature","properties":{"ID":558,"Name":"Jindal","Category":"B"},"geometry":{"type":"Point","coordinates":[77.48329817,13.05399823]}},{"type":"Feature","properties":{"ID":559,"Name":"Chikka Bidarakallu","Category":"B"},"geometry":{"type":"Point","coordinates":[77.48740819,13.05248402]}},{"type":"Feature","properties":{"ID":560,"Name":"Morision Factory","Category":"B"},"geometry":{"type":"Point","coordinates":[77.49217817,13.0507814]}},{"type":"Feature","properties":{"ID":561,"Name":"Widia School Tumkur Road","Category":"B"},"geometry":{"type":"Point","coordinates":[77.49684171,13.04910399]}},{"type":"Feature","properties":{"ID":562,"Name":"Deepak","Category":"B"},"geometry":{"type":"Point","coordinates":[77.5017016,13.04730298]}},{"type":"Feature","properties":{"ID":563,"Name":"8th Mile T Dasarahalli","Category":"B"},"geometry":{"type":"Point","coordinates":[77.50835934,13.04522566]}},{"type":"Feature","properties":{"ID":564,"Name":"Srinagara,Hanuman temple","Category":"B"},"geometry":{"type":"Point","coordinates":[77.55429078,12.94413354]}},{"type":"Feature","properties":{"ID":565,"Name":"Byatarayana Pura,BYATARAYANAPURA,BESIDE GOVERNMENT SCHOOL","Category":"B"},"geometry":{"type":"Point","coordinates":[77.59348227,13.06716828]}},{"type":"Feature","properties":{"ID":566,"Name":"SBM ATM","Category":"B"},"geometry":{"type":"Point","coordinates":[77.59607,13.06654]}},{"type":"Feature","properties":{"ID":567,"Name":"Amrutahalli,AMRUTHAHALLI,BESIDE S.L.J. IYENGAR BAKERY & SWEETS","Category":"B"},"geometry":{"type":"Point","coordinates":[77.60071326,13.06573455]}},{"type":"Feature","properties":{"ID":568,"Name":"Jakkur Layout","Category":"B"},"geometry":{"type":"Point","coordinates":[77.60158,13.0695]}},{"type":"Feature","properties":{"ID":569,"Name":"18th Cross Srirampura,AMRUTHAHALLI,BESIDE APARTMENTS","Category":"B"},"geometry":{"type":"Point","coordinates":[77.60353921,13.06880571]}},{"type":"Feature","properties":{"ID":570,"Name":"Srirampura Cross,JAKKURU,BESIDE MAHATMA GANDHI INSTITUTE OF RURAL ENERGY & DEVELOPMENT","Category":"B"},"geometry":{"type":"Point","coordinates":[77.60967548,13.06666867]}},{"type":"Feature","properties":{"ID":571,"Name":"Srirampura,SRIRAMPURA,BESIDE MESTRIPALYA LAKE","Category":"B"},"geometry":{"type":"Point","coordinates":[77.62013884,13.06582412]}},{"type":"Feature","properties":{"ID":572,"Name":"Mestripalya,MESTRIPALYA,IN FRONT OF CHURCH","Category":"B"},"geometry":{"type":"Point","coordinates":[77.62041307,13.06131285]}},{"type":"Feature","properties":{"ID":573,"Name":"Rachenahalli Hegde Nagar,RACHENAHALLI,OPPOSITE OF DR.B.R.AMBEDKAR YUVKAR SANGHA","Category":"B"},"geometry":{"type":"Point","coordinates":[77.62360026,13.05816141]}},{"type":"Feature","properties":{"ID":574,"Name":"Tanisandra,THANISANDRA,OPPOSITE OF IYENGAR BAKERY","Category":"B"},"geometry":{"type":"Point","coordinates":[77.63236655,13.05601386]}},{"type":"Feature","properties":{"ID":575,"Name":"Ashwathanagara Nagawara","Category":"B"},"geometry":{"type":"Point","coordinates":[77.63131298,13.05248948]}},{"type":"Feature","properties":{"ID":576,"Name":"Sarai Palya Nagawar","Category":"B"},"geometry":{"type":"Point","coordinates":[77.62859547,13.04724926]}},{"type":"Feature","properties":{"ID":577,"Name":"NAGAVARA JUNCTION","Category":"B"},"geometry":{"type":"Point","coordinates":[77.62455551,13.04050764]}},{"type":"Feature","properties":{"ID":578,"Name":"Hebbala Bridge,HEBBALA,BESIDE LAKE","Category":"B"},"geometry":{"type":"Point","coordinates":[77.59050631,13.04367882]}},{"type":"Feature","properties":{"ID":579,"Name":"Military Dairy Farm,BESIDE MILITARY COMPOUND","Category":"B"},"geometry":{"type":"Point","coordinates":[77.59262071,13.04948017]}},{"type":"Feature","properties":{"ID":580,"Name":"Amrutahalli,AMRUTHAHALLI,BESIDE AMRUTH CLINIC","Category":"B"},"geometry":{"type":"Point","coordinates":[77.60076778,13.06563754]}},{"type":"Feature","properties":{"ID":581,"Name":"Byatarayana Pura,BYATARAYANAPURA,BESIDE B.B.M.P PUBLIC SERVICE CENTER","Category":"B"},"geometry":{"type":"Point","coordinates":[77.59359267,13.06726682]}},{"type":"Feature","properties":{"ID":582,"Name":"Hebbala,HEBBALA,BESIDE LAKE","Category":"B"},"geometry":{"type":"Point","coordinates":[77.59009682,13.04301356]}},